_id,lat,lon,region,name_en,name_ru,official_status
54,55.0288307,82.9226887,,Novosibirsk,Новосибирск,город
26163795,56.0176160,29.9171280,Псковская область,Nevel,Невель,город
26878551,67.1514420,32.4130551,Мурманская область,Kandalaksha,Кандалакша,город
26898767,67.5686260,33.4043920,Мурманская область,Apatity,Апатиты,город
26898768,65.2000960,31.1801720,,Kalevala,Калевала,посёлок городского типа
26898769,67.6151331,33.6637527,Мурманская область,Kirovsk,Кировск,город
26898776,63.8924047,34.2660109,,Nadvoitsy,Надвоицы,посёлок городского типа
26898825,63.7435087,34.3106868,,Segezha,Сегежа,город
26898826,66.8574520,32.3871000,Мурманская область,Zelenoborskij,Зеленоборский,посёлок городского типа
26901966,64.5633850,39.8237690,Архангельская область,Severodvinsk,Северодвинск,город
26903504,61.7900426,34.3900070,,Petrozavodsk,Петрозаводск,город
26921263,62.2092900,34.2681850,,Kondopoga,Кондопога,город
26925161,65.8439560,44.2441410,Архангельская область,Mezen',Мезень,город
26951330,59.2188760,39.8932760,Вологодская область,Vologda,Вологда,город
26952234,61.5091210,38.9407960,Архангельская область,Kargopol',Каргополь,город
26958524,61.0756446,42.0979582,Архангельская область,Vel'sk,Вельск,город
27000366,56.8586750,35.9208284,Тверская область,Tver,Тверь,город
27001056,57.5883648,34.5720732,Тверская область,Vysnij Volocek,Вышний Волочёк,город
27017589,58.5209862,31.2757862,Новгородская область,Veliky Novgorod,Великий Новгород,город
27023177,58.7356990,29.8475013,Ленинградская область,Luga,Луга,город
27024680,59.7222560,30.4157310,Санкт-Петербург,Pushkin,Пушкин,город
27025179,59.5706273,30.1305083,Ленинградская область,Gatchina,Гатчина,город
27025689,57.8173923,28.3343465,,Pskov,Псков,город
27048976,54.7101280,20.5105838,Калининградская область,Kaliningrad,Калининград,город
27048978,54.6437214,19.8941584,Калининградская область,Baltiysk,Балтийск,город
27072632,56.3423610,30.5279220,Псковская область,Velikiye Luki,Великие Луки,город
27072633,54.7814057,32.0461261,Смоленская область,Smolensk,Смоленск,город
27073428,53.2423778,34.3668288,Брянская область,Bryansk,Брянск,город
27081144,56.7116700,28.6568180,Псковская область,Opochka,Опочка,город
27084320,56.2774187,28.4848862,Псковская область,Sebezh,Себеж,город
27090043,51.7394330,36.1796040,Курская область,Kursk,Курск,город
27096008,52.9687747,36.0694937,Орловская область,Oryol,Орёл,город
27119039,50.5955595,36.5873394,Белгородская область,Belgorod,Белгород,город
27212295,45.1907635,33.3679049,,Yevpatoriya,Евпатория,город
27446511,59.6443230,33.5418624,Ленинградская область,Tikhvin,Тихвин,город
27464354,57.2578179,39.1476952,Ярославская область,Borisoglebsky,Борисоглебский,рабочий посёлок
27464486,57.1860127,39.4249557,Ярославская область,Rostov,Ростов,город
27490597,59.9387320,30.3162290,,Saint Petersburg,Санкт-Петербург,город
27492465,58.8960621,34.5121844,Новгородская область,,Хвойная,рабочий посёлок
27503886,43.1150678,131.8855768,,Vladivostok,Владивосток,город
27503892,56.8391040,60.6082500,Свердловская область,Yekaterinburg,Екатеринбург,город
27503945,53.1986270,50.1139870,Самарская область,Samara,Самара,город
27503946,54.9913750,73.3715290,Омская область,Omsk,Омск,город
27504067,55.7823547,49.1242266,Татарстан,Qazan,Казань,город
27504156,55.1598408,61.4025547,Челябинская область,Chelyabinsk,Челябинск,город
27504327,54.7261409,55.9474990,Башкортостан,Ufa,Уфа,город
27504363,48.7081906,44.5153353,Волгоградская область,Volgograd,Волгоград,город
27504531,58.0149650,56.2467230,Пермский край,Perm,Пермь,город
27504590,51.5300180,46.0346830,Саратовская область,Saratov,Саратов,город
27505044,51.6605982,39.2005858,Воронежская область,Voronezh,Воронеж,город
27505046,53.5149884,49.4073316,Самарская область,Tolyatti,Тольятти,город
27505129,45.0351532,38.9772396,Краснодарский край,Krasnodar,Краснодар,город
27505266,57.6263877,39.8933705,Ярославская область,Yaroslavl,Ярославль,город
27505285,53.3475493,83.7788448,Алтайский край,Barnaul,Барнаул,город
27505335,52.2891225,104.2798290,Иркутская область,Irkutsk,Иркутск,город
27505477,53.7575903,87.1358494,Кемеровская область,Novokuznetsk,Новокузнецк,город
27505509,51.7671248,55.0978517,Оренбургская область,Orenburg,Оренбург,город
27505582,54.6295687,39.7425039,Рязанская область,Ryazan,Рязань,город
27505663,53.2000010,45.0000000,Пензенская область,Penza,Пенза,город
27505666,57.1535340,65.5422740,Тюменская область,Tyumen,Тюмень,город
27505889,56.3264816,44.0051395,Нижегородская область,Nizhny Novgorod,Нижний Новгород,город
29750243,45.2590875,38.1244609,Краснодарский край,Slavyansk-na-Kubani,Славянск-на-Кубани,город
29751525,45.2751663,37.3905481,Краснодарский край,Temryuk,Темрюк,город
29804102,44.8942720,37.3168870,Краснодарский край,Anapa,Анапа,город
29866496,46.0431810,38.1554803,Краснодарский край,Primorsko-Akhtarsk,Приморско-Ахтарск,город
29866526,46.7112094,38.2747987,Краснодарский край,Yeysk,Ейск,город
29980667,47.2153657,38.9285216,Ростовская область,Taganrog,Таганрог,город
34043670,43.5854823,39.7231090,Краснодарский край,Sochi,Сочи,город
34181150,44.5609447,38.0766832,Краснодарский край,Gelendzhik,Геленджик,город
34181855,44.6515718,37.9395292,Краснодарский край,Kabardinka,Кабардинка,село
34389205,56.7362705,37.1623696,Московская область,Dubna,Дубна,город
34389206,56.7131572,36.7775654,Тверская область,Konakovo,Конаково,город
34389350,54.1930321,37.6175400,Тульская область,Tula,Тула,город
34390476,60.3666650,28.6166730,Ленинградская область,Primorsk,Приморск,город
34390960,60.6280319,28.5688339,Ленинградская область,Vysotsk,Высоцк,город
34391623,61.1112542,28.8701036,Ленинградская область,Svetogorsk,Светогорск,город
34391624,60.9526102,29.1303401,Ленинградская область,Kamennogorsk,Каменногорск,город
34392894,60.1052425,32.3147626,Ленинградская область,Novaya Ladoga,Новая Ладога,город
34392911,59.9275868,32.3276803,Ленинградская область,Volkhov,Волхов,город
34395335,43.1875572,44.5375689,,Beslan,Беслан,город
34395338,43.2320774,44.7540128,Ингушетия,Nazran,Назрань,город
34395341,43.1666497,44.8048191,Ингушетия,Magas,Магас,город
34506055,57.9051490,59.9508466,Свердловская область,Nizhny Tagil,Нижний Тагил,город
34506389,67.5035662,64.0627028,,Vorkuta,Воркута,город
36714827,45.0433245,41.9690934,Ставропольский край,Stavropol,Ставрополь,город
36722707,44.6342653,39.1363613,Краснодарский край,Goryachiy Klyuch,Горячий Ключ,город
36722824,44.0984747,39.0718875,Краснодарский край,Tuapse,Туапсе,город
60078302,52.5844460,32.7600980,Брянская область,,Стародуб,город
60078390,52.8451000,32.6867000,Брянская область,Unecha,Унеча,город
60078445,53.9483965,32.8606696,Смоленская область,Roslavl,Рославль,город
60079145,59.5412777,30.8773645,Ленинградская область,Tosno,Тосно,город
60081897,59.7484440,30.6044790,Санкт-Петербург,Kolpino,Колпино,город
60237699,54.9600365,20.4750188,Калининградская область,Zelenogradsk,Зеленоградск,город
60237889,54.6733550,20.1311530,Калининградская область,,Светлый,город
60238036,54.4636264,19.9414303,Калининградская область,Mamonovo,Мамоново,город
60238153,54.3868191,20.6405124,Калининградская область,,Багратионовск,город
60238387,55.0809688,21.8882673,Калининградская область,Sovetsk,Советск,город
60238408,55.0359656,22.0293578,Калининградская область,,Неман,город
60238585,54.8602520,21.1070270,Калининградская область,Polessk,Полесск,город
60405981,57.0407940,34.9733730,Тверская область,Torzhok,Торжок,город
60477767,60.1970751,29.7071585,Санкт-Петербург,Zelenogorsk,Зеленогорск,город
60696063,59.3463250,31.2442070,Ленинградская область,Lyuban,Любань,город
60699035,53.0591919,32.8500077,Брянская область,Mglin,Мглин,город
76611479,52.6041877,39.5936899,Липецкая область,Lipetsk,Липецк,город
76752092,57.7652890,29.5518780,Псковская область,Porkhov,Порхов,город
79736088,57.0525050,53.9906120,Удмуртия,Votkinsk,Воткинск,город
82452220,56.3355601,36.7351318,Московская область,Klin,Клин,город
82545393,61.0385285,30.1248482,Ленинградская область,Priozersk,Приозерск,город
82739207,56.7787468,54.1500704,,Chaikovsky,Чайковский,город
83087798,59.8818470,29.9120410,Санкт-Петербург,Peterhof,Петергоф,город
83308922,60.2566510,29.6051421,Ленинградская область,Roshchino,Рощино,городской посёлок
83312335,60.5570987,30.2540609,Ленинградская область,Sosnovo,Сосново,посёлок
87705691,44.7239578,37.7690711,Краснодарский край,Novorossiysk,Новороссийск,город
89982639,54.7415766,35.2264393,Калужская область,,Юхнов,город
90045540,54.9695000,35.8570000,Калужская область,Medyn,Медынь,город
90441479,50.9459056,46.9724620,Саратовская область,Krasny Kut,Красный Кут,город
90471328,50.7970972,42.0051866,Волгоградская область,Uryupinsk,Урюпинск,город
90495941,55.0951738,36.6119130,Калужская область,Obninsk,Обнинск,город
90496729,55.1783579,36.6575564,Калужская область,Balabanovo,Балабаново,город
92383389,57.5267830,38.3166890,Ярославская область,Uglich,Углич,город
92441557,56.7367178,38.8462714,,Pereslavl-Zalessky,Переславль-Залесский,город
92774502,57.7847250,38.4515950,Ярославская область,Myshkin,Мышкин,город
93384125,56.3450695,37.5200723,Московская область,Dmitrov,Дмитров,город
93384127,56.7309410,37.5280160,Московская область,Taldom,Талдом,город
93387393,56.3962287,38.7111103,Владимирская область,Alexandrov,Александров,город
93390174,56.2939784,39.3759931,Владимирская область,,Кольчугино,город
93701882,43.6820626,43.5344319,,Baksan,Баксан,город
93711720,43.4769604,43.5966578,,Nalchik,Нальчик,город
94075151,55.8269908,34.2770455,Смоленская область,,Сычёвка,город
94091844,56.8556330,33.4522860,Тверская область,Selizharovo,Селижарово,посёлок городского типа
94102909,57.1557583,33.1013213,Тверская область,Ostashkov,Осташков,город
97811692,52.5835000,33.7674670,Брянская область,,Трубчевск,город
97816108,52.5542830,33.2637060,Брянская область,Pogar,Погар,посёлок городского типа
101480194,51.5013775,46.1233093,Саратовская область,Engels,Энгельс,город
113548786,58.6035661,49.6666241,Кировская область,Kirov,Киров,город
125891414,60.1437070,30.2078060,Ленинградская область,Sertolovo,Сертолово,город
130201149,52.5370860,31.9336700,Брянская область,Novozybkov,Новозыбков,город
130201537,52.4274018,31.7371106,Брянская область,Zlynka,Злынка,город
140560218,53.0131501,32.3931633,Брянская область,Surazh,Сураж,город
140562335,52.1560210,34.4945720,Брянская область,,Севск,город
140563839,52.8271323,34.4993843,Брянская область,,Навля,посёлок городского типа
140594314,56.0360129,35.9583358,Московская область,Volokolamsk,Волоколамск,город
143561186,55.9341491,37.5142417,Московская область,Dolgoprudny,Долгопрудный,город
143564891,55.8917293,37.4396994,,Khimki,Химки,город
148899210,58.0503730,38.8346370,Ярославская область,Rybinsk,Рыбинск,город
148899605,57.2400206,37.8404883,Тверская область,Kalyazin,Калязин,город
148899607,57.8753850,39.5272140,Ярославская область,Tutaev,Тутаев,город
148901123,57.7679158,40.9269141,Костромская область,Kostroma,Кострома,город
148901125,56.9984452,40.9737394,Ивановская область,Ivanovo,Иваново,город
148901126,57.3617550,37.6114540,Тверская область,Kashin,Кашин,город
148912020,56.8734395,37.3556968,Тверская область,Kimry,Кимры,город
153568874,55.7577131,52.0539938,Татарстан,Alabuğa,Елабуга,город
156159426,55.7813357,38.6507838,Московская область,Pavlovsky Posad,Павловский Посад,город
156167469,55.7903785,38.4405711,Московская область,Elektrostal,Электросталь,город
156167485,55.8553511,38.4411898,Московская область,Noginsk,Ногинск,город
160258541,44.0397750,43.0706669,,Pyatigorsk,Пятигорск,город
160569651,47.2216548,39.7096061,Ростовская область,Rostov-on-Don,Ростов-на-Дону,город
163043169,56.4884594,84.9527189,,Tomsk,Томск,город
173833660,55.2643778,31.5178326,Смоленская область,,Демидов,город
173835805,55.6045223,31.1949976,Смоленская область,,Велиж,город
173846663,56.8247830,30.1444820,Псковская область,,Локня,посёлок городского типа
173863860,56.9738846,29.8845309,Псковская область,Bezhanitsy,Бежаницы,рабочий посёлок
174842795,56.1092126,69.4571520,Тюменская область,Ishim,Ишим,город
176957217,66.5375387,66.6157469,Ямало-Ненецкий автономный округ,Salekhard,Салехард,город
176960743,66.6615094,66.3810869,Ямало-Ненецкий автономный округ,Labytnangi,Лабытнанги,город
178108820,57.6651950,66.1723250,Тюменская область,,Нижняя Тавда,село
178926370,56.0650710,85.6313250,Кемеровская область,Taiga,Тайга,город
178927700,56.5780790,85.1035230,Томская область,Svetly,Светлый,посёлок
178951928,56.0090968,92.8725147,Красноярский край,Krasnoyarsk,Красноярск,город
178972986,56.9991870,86.1416700,Томская область,Asino,Асино,город
179108306,56.4269220,85.0221020,Томская область,Zonalnaya Stantsiya,Зональная Станция,посёлок
179165864,57.0706140,86.2260820,Томская область,Pervomayskoye,Первомайское,село
179374935,55.4543500,65.3218770,Курганская область,Kurgan,Курган,город
186985543,57.3437420,83.9301530,Томская область,Krivosheino,Кривошеино,село
186987910,57.5812043,83.7605958,Томская область,Molchanovo,Молчаново,село
187010245,58.3136670,82.9035570,Томская область,Kolpashevo,Колпашево,город
187013636,56.5544170,84.0904080,Томская область,Melnikovo,Мельниково,село
188558082,59.1286960,37.9163890,Вологодская область,Cherepovets,Череповец,город
191636706,51.9577750,85.9636530,Республика Алтай,Gorno-Altaysk,Горно-Алтайск,город
191638748,44.2285229,42.0482570,,Cherkessk,Черкесск,город
191640862,56.6328248,47.8972462,Марий Эл,Yoshkar-Ola,Йошкар-Ола,город
191641244,44.6062079,40.1040530,Адыгея,Maykop,Майкоп,город
191644503,42.9830241,47.5048717,Дагестан,Makhachkala,Махачкала,город
191648647,46.3069990,44.2701870,,Elista,Элиста,город
191650708,61.6685237,50.8352024,,Syktyvkar,Сыктывкар,город
191651581,54.1867100,45.1838300,,Saransk,Саранск,город
191652335,62.0274078,129.7319787,,Yakutsk,Якутск,город
191655065,51.7190790,94.4300679,,Kyzyl,Кызыл,город
191667890,53.0199838,158.6471356,Камчатский край,Petropavlovsk-Kamchatsky,Петропавловск-Камчатский,город
191698855,56.1288899,40.4075203,Владимирская область,Vladimir,Владимир,город
191723030,46.9574273,142.7274380,Сахалинская область,Yuzhno-Sakhalinsk,Южно-Сахалинск,город
191725784,52.7287900,41.4553600,Тамбовская область,Tambov,Тамбов,город
191732832,51.1057609,114.5408006,Забайкальский край,Aginskoye,Агинское,посёлок городского типа
191733890,67.6380175,53.0071044,Ненецкий автономный округ,Nar'yan-Mar,Нарьян-Мар,город
191736223,61.0034448,69.0190006,,Khanty-Mansiysk,Ханты-Мансийск,город
191736988,64.7316875,177.5060925,Чукотский автономный округ,Anadyr,Анадырь,город
191738860,48.7881668,132.9282082,Еврейская автономная область,Birobidzhan,Биробиджан,город
191749240,55.7419774,52.3992070,Татарстан,Çallı,Набережные Челны,город
191752285,48.7821020,44.7779843,Волгоградская область,Volzhskiy,Волжский,город
191754078,61.2540320,73.3964000,,Surgut,Сургут,город
191754954,50.5508770,137.0207820,Хабаровский край,Komsomolsk-on-Amur,Комсомольск-на-Амуре,город
191756795,53.6323740,55.9522590,Башкортостан,Sterlitamak,Стерлитамак,город
191758663,56.1517085,101.6334907,Иркутская область,Bratsk,Братск,город
191761177,56.2382157,43.4617405,Нижегородская область,Dzerzhinsk,Дзержинск,город
191771467,47.7119167,40.2115699,Ростовская область,Shakhty,Шахты,город
191773560,52.5311117,103.8826109,Иркутская область,Angarsk,Ангарск,город
191774769,60.9339411,76.5814274,,Nizhnevartovsk,Нижневартовск,город
191779212,53.8909720,86.7376630,Кемеровская область,Prokopyevsk,Прокопьевск,город
191780610,69.3498394,88.2005170,,Norilsk,Норильск,город
191824980,44.9993585,41.1294061,Краснодарский край,Armavir,Армавир,город
191843200,55.1674213,59.6792625,Челябинская область,Zlatoust,Златоуст,город
191843504,56.4154510,61.9177970,Свердловская область,Kamensk-Uralsky,Каменск-Уральский,город
191846117,47.4106600,40.1019860,Ростовская область,Novocherkassk,Новочеркасск,город
191849717,55.9204898,37.8326289,Московская область,Korolyov,Королёв,город
191850710,42.8246489,132.8926000,Приморский край,Nakhodka,Находка,город
191851580,47.5128177,42.1717606,Ростовская область,Volgodonsk,Волгодонск,город
191852866,59.4084171,56.8036958,Пермский край,Berezniki,Березники,город
191855308,51.5276264,81.2176174,Алтайский край,Rubtsovsk,Рубцовск,город
191858851,55.6783142,37.8937700,Московская область,Lyubertsy,Люберцы,город
191863710,55.0653040,60.1083370,Челябинская область,Miass,Миасс,город
191864581,43.7972447,131.9520752,Приморский край,Ussurijsk,Уссурийск,город
191866198,56.3746030,41.3116760,Владимирская область,Kovrov,Ковров,город
191867420,55.0938743,38.7670121,Московская область,Kolomna,Коломна,город
191870333,55.1131951,61.6216332,Челябинская область,Kopeysk,Копейск,город
191871001,56.9051246,59.9431941,Свердловская область,Pervouralsk,Первоуральск,город
191871925,55.6711507,37.2727963,Московская область,Odintsovo,Одинцово,город
191872996,44.6245814,41.9475941,Ставропольский край,Nevinnomyssk,Невинномысск,город
191875199,43.9128743,42.7192186,Ставропольский край,Kislovodsk,Кисловодск,город
191878451,54.2188995,49.6038982,Ульяновская область,Dimitrovgrad,Димитровград,город
191879312,56.1140023,47.4870341,Чувашия,Novocheboksarsk,Новочебоксарск,город
191880180,54.9155247,37.4195533,Московская область,Serpukhov,Серпухов,город
191880979,43.2469160,46.5855184,Дагестан,Khasavyurt,Хасавюрт,город
191882252,50.0808422,45.4048003,Волгоградская область,Kamyshin,Камышин,город
191884653,55.5738000,42.0447000,Владимирская область,Murom,Муром,город
191885615,55.8083278,38.9790038,Московская область,,Орехово-Зуево,город
191886499,56.0884031,54.2478094,Башкортостан,Neftekamsk,Нефтекамск,город
191889906,47.7558886,39.9359870,Ростовская область,Novoshakhtinsk,Новошахтинск,город
191890746,56.2694846,90.4953964,Красноярский край,Achinsk,Ачинск,город
191891797,52.6219865,38.5003298,Липецкая область,Yelets,Елец,город
191892583,56.3153529,38.1358208,Московская область,Sergiyev Posad,Сергиев Посад,город
191894808,61.0903090,72.6101000,,Nefteyugansk,Нефтеюганск,город
191896570,53.0992430,49.9483640,Самарская область,Novokuybyshevsk,Новокуйбышевск,город
191897505,63.2002917,75.4475807,,Noyabrsk,Ноябрьск,город
191901380,54.4809722,53.4660062,Башкортостан,Oktjabrski,Октябрьский,город
191902212,56.6031610,84.8810120,Томская область,Seversk,Северск,город
191902906,55.3989463,43.8408129,,Arzamas,Арзамас,город
191903740,42.0578580,48.2887648,,Derbent,Дербент,город
191907831,51.1963690,58.2985270,Оренбургская область,Novotroitsk,Новотроицк,город
191908717,54.0049872,86.6354771,Кемеровская область,Kiselyovsk,Киселёвск,город
191909355,53.6863763,88.0703443,Кемеровская область,Mezhdurechensk,Междуреченск,город
191909841,63.5623797,53.6842376,,Ukhta,Ухта,город
191911296,43.3570377,132.1853629,Приморский край,Artyom,Артём,город
191912193,56.2059970,95.7067870,Красноярский край,Kansk,Канск,город
191913805,55.5972801,38.1199863,Московская область,Zhukovsky,Жуковский,город
191914736,58.1998048,68.2512924,Тюменская область,Tobolsk,Тобольск,город
203914619,57.0205380,82.0668720,Томская область,Bakchar,Бакчар,село
203999445,56.8342060,86.6211780,Томская область,Zyryanskoye,Зырянское,село
204764214,51.6567690,103.7192920,Иркутская область,Slyudyanka,Слюдянка,город
204815902,69.4060670,86.1750720,Красноярский край,Dudinka,Дудинка,город
204816649,64.2741955,100.2169635,Красноярский край,Tura,Тура,посёлок
205159518,55.7136000,84.9347990,Кемеровская область,Yurga,Юрга,город
205177205,55.2751962,85.6228741,Кемеровская область,Topki,Топки,город
205216827,54.6654430,86.1661150,Кемеровская область,Leninsk-Kuznetsky,Ленинск-Кузнецкий,город
205375412,58.4475598,85.0389307,Томская область,Bely Yar,Белый Яр,рабочий посёлок
205430993,56.2020084,86.4485361,Кемеровская область,Yaya,Яя,посёлок городского типа
205437775,56.2062990,87.7512590,Кемеровская область,Mariinsk,Мариинск,город
206092285,59.8968655,29.0765628,Ленинградская область,Sosnoviy Bor,Сосновый Бор,город
206111919,55.8717888,85.4380316,Кемеровская область,Yashkino,Яшкино,посёлок городского типа
206131650,58.0413743,65.2719986,Свердловская область,Tavda,Тавда,город
206204308,54.6031420,86.2760240,Кемеровская область,Polysayevo,Полысаево,город
206803392,58.7139667,81.5018413,Томская область,Parabel,Парабель,село
206809742,59.0598053,80.8708719,Томская область,Kargasok,Каргасок,село
206864037,58.8406817,50.8410741,Кировская область,,Белая Холуница,город
210111403,60.7327580,77.6008070,Томская область,Strezhevoy,Стрежевой,город
210122762,55.8055380,68.3089070,Тюменская область,,Бердюжье,село
210133788,56.3955420,68.3750690,Тюменская область,,Голышманово,рабочий посёлок
210221063,56.2600069,83.9750781,Томская область,Kozhevnikovo,Кожевниково,село
210251157,54.9944056,82.4427018,Новосибирская область,Chik,Чик,рабочий посёлок
210305929,56.2380600,96.0669400,Красноярский край,Ilansky,Иланский,город
210321646,55.9642750,97.8245090,Иркутская область,Biryusinsk,Бирюсинск,город
210323639,55.9385304,98.0196711,Иркутская область,Tayshet,Тайшет,город
210375564,60.4314460,77.8658450,Томская область,Aleksandrovskoye,Александровское,село
210526082,57.5619200,79.5708010,Томская область,Kedrovy,Кедровый,город
210737785,57.7915323,82.6441106,Томская область,Podgornoye,Подгорное,село
211503865,60.0685580,30.3948140,Ленинградская область,Bugry,Бугры,посёлок
211504478,60.1097594,30.4925228,Ленинградская область,Kuzmolovskiy,Кузьмоловский,посёлок городского типа
216890905,53.6069950,87.3328930,Кемеровская область,Osinniki,Осинники,город
217317194,59.3743982,28.5981591,Ленинградская область,Kingisepp,Кингисепп,город
217323851,59.3744139,28.2192542,Ленинградская область,Ivangorod,Ивангород,город
221109841,53.5194590,87.2861790,Кемеровская область,Kaltan,Калтан,город
221123415,53.4029200,87.2845310,,Malinovka,Малиновка,посёлок
221173014,52.7594694,87.8484499,Кемеровская область,Tashtagol,Таштагол,город
221181091,52.9259826,87.9767624,Кемеровская область,Sheregesh,Шерегеш,посёлок городского типа
221214205,53.7138600,87.8003160,Кемеровская область,Myski,Мыски,город
235967510,60.0981084,29.9597606,Санкт-Петербург,Sestroretsk,Сестрорецк,город
243067858,60.2186937,30.2931287,Ленинградская область,Agalatovo,Агалатово,деревня
243067926,60.0837018,30.2795673,Санкт-Петербург,Pargolovo,Парголово,посёлок
243068681,60.0240060,30.6460420,Ленинградская область,Vsevolozhsk,Всеволожск,город
243083247,54.9084881,99.0302862,Иркутская область,Nizhneudinsk,Нижнеудинск,город
243329007,54.5620960,100.5792160,Иркутская область,Tulun,Тулун,город
243347526,51.8342930,108.2706150,Бурятия,Zaigrayevo,Заиграево,посёлок городского типа
243349531,51.2752150,108.8544850,Забайкальский край,Petrovsk-Zabaykalsky,Петровск-Забайкальский,город
243355185,51.3628436,110.4579749,Забайкальский край,Khilok,Хилок,город
243367757,59.7034799,30.7861084,Ленинградская область,Nikolskoye,Никольское,город
243480022,60.1588778,30.5255831,Ленинградская область,Toksovo,Токсово,посёлок городского типа
243527503,51.6234020,114.3406300,Забайкальский край,Karymskoye,Карымское,посёлок городского типа
243634984,51.8516390,116.0258940,Забайкальский край,Shilka,Шилка,город
243635532,51.9004750,116.2519680,Забайкальский край,Kholbon,Холбон,посёлок городского типа
243695003,52.5140690,117.0137100,Забайкальский край,Chernyshevsk,Чернышевск,посёлок городского типа
243836016,56.0873640,63.6294820,Курганская область,Shadrinsk,Шадринск,город
243991807,57.0415270,65.7271040,Тюменская область,,Боровский,рабочий посёлок
243991809,56.9641190,65.7805860,Тюменская область,,Винзили,рабочий посёлок
243991812,56.8940700,65.8946230,Тюменская область,,Богандинский,рабочий посёлок
243991814,56.6549340,66.3127520,Тюменская область,Yalutorovsk,Ялуторовск,город
243991822,56.5092930,66.5392610,Тюменская область,Zavodoukovsk,Заводоуковск,город
243993517,55.9451290,67.6854020,Тюменская область,,Армизонское,село
243993518,55.6434378,69.2419265,Тюменская область,,Казанское,село
243993519,56.2890240,70.4530260,Тюменская область,Abatskiy,Абатское,село
243993520,55.5648960,71.3493650,Омская область,Nazyvayevsk,Называевск,город
243995008,56.4766460,67.6639400,Тюменская область,,Омутинское,село
244064712,59.5129787,34.1773573,Ленинградская область,Pikalyovo,Пикалёво,город
244078631,52.2431910,117.6955410,Забайкальский край,Sretensk,Сретенск,город
244213400,60.1024225,30.2040627,Санкт-Петербург,Levashovo,Левашово,посёлок
244217868,59.9908450,29.7746520,Санкт-Петербург,Kronstadt,Кронштадт,город
244220844,60.1397073,32.5637502,Ленинградская область,Syasstroy,Сясьстрой,город
244396312,52.7609750,55.7964820,Башкортостан,,Кумертау,город
244529460,57.3064040,88.1671680,Томская область,Teguldet,Тегульдет,село
245917485,59.0440083,52.3552684,Кировская область,Peskovka,Песковка,посёлок городского типа
246280229,59.1992190,37.1486090,Вологодская область,,Кадуй,посёлок городского типа
246459003,54.5101087,36.2598115,Калужская область,Kaluga,Калуга,город
246559783,59.1638300,35.3293690,Вологодская область,Chagoda,Чагода,посёлок городского типа
246566425,58.8428204,36.4296982,Вологодская область,Ustyuzhna,Устюжна,город
246669195,56.2114640,89.5316390,Красноярский край,Bogotol,Боготол,город
246676969,59.9474180,30.5614530,Ленинградская область,Yanino-1,Янино-1,городской посёлок
246678899,59.8813954,30.9855331,Ленинградская область,Kirovsk,Кировск,город
246830274,57.3446310,28.3578170,Псковская область,Ostrov,Остров,город
247077588,52.9632800,55.9286120,Башкортостан,Meleuz,Мелеуз,город
247216329,62.0820094,32.3458560,,Suoyarvi,Суоярви,город
247704625,56.9724682,60.5738926,Свердловская область,Verkhnyaya Pyshma,Верхняя Пышма,город
248268280,59.9615811,29.4166768,Ленинградская область,Lebyazhye,Лебяжье,посёлок городского типа
248517049,60.7339323,33.5457731,Ленинградская область,Lodeynoye Pole,Лодейное Поле,город
248560493,58.2476650,32.5228580,Новгородская область,,Крестцы,рабочий посёлок
248561620,57.9791414,33.2537994,Новгородская область,Valday,Валдай,город
248561802,57.8852040,34.0496030,Тверская область,Bologoe,Бологое,город
248877229,59.8590575,38.3758696,Вологодская область,Kirillov,Кириллов,город
249629979,60.0319900,37.7842189,Вологодская область,Belozersk,Белозерск,город
249759120,60.0461930,30.4458901,Ленинградская область,Murino,Мурино,город
249841082,61.1211675,29.8730838,Ленинградская область,Kuznechnoye,Кузнечное,посёлок городского типа
250133468,58.5991505,35.8230767,Новгородская область,Pestovo,Пестово,город
250622613,55.0311430,55.9818760,Башкортостан,Blagoveshchensk,Благовещенск,город
251069363,55.4206774,55.5407179,Башкортостан,Birsk,Бирск,город
251069799,54.6065370,53.6974004,Башкортостан,Tujmazy,Туймазы,город
251071107,55.8992760,53.9374202,Башкортостан,Agidel,Агидель,город
251072970,55.4906160,54.8638950,Башкортостан,Dyurtyuli,Дюртюли,город
251073091,55.1071240,55.3422010,Башкортостан,Kushnarenkovo,Кушнаренково,село
251073791,44.6054434,33.5220842,Севастополь,Sevastopol,Севастополь,город
251471563,64.4192120,40.7937930,Архангельская область,Novodvinsk,Новодвинск,город
251524158,56.2707600,54.9317020,Башкортостан,Yanaul,Янаул,город
251526742,54.9908896,57.2780531,Челябинская область,Asha,Аша,город
251531240,54.9307169,58.1743686,Челябинская область,Ust'-Katav,Усть-Катав,город
251532339,54.8700750,58.4278070,Челябинская область,Yuryuzan',Юрюзань,город
251645471,52.0334090,113.5008930,Забайкальский край,Chita,Чита,город
251710853,59.2069457,38.5009851,Вологодская область,Sheksna,Шексна,посёлок городского типа
252176252,44.9521459,34.1024858,,Simferopol,Симферополь,город
252425945,59.7337993,30.0862468,Санкт-Петербург,Krasnoye Selo,Красное Село,город
252546931,55.7043101,38.9569091,Московская область,Likino-Dulyovo,Ликино-Дулёво,город
252975800,54.9211081,82.9905861,Новосибирская область,Krasnoobsk,Краснообск,рабочий посёлок
253016504,55.3829765,39.0356223,Московская область,Yegoryevsk,Егорьевск,город
253041038,55.9964233,37.1985340,Москва,Zelenograd,Зеленоград,город
253241997,54.3674510,56.1688190,Башкортостан,Karmaskaly,Кармаскалы,село
253243268,54.4057240,56.7841220,Башкортостан,,Архангельское,село
253258948,54.2410247,57.9736815,Башкортостан,Mezhgorye,Межгорье,город
253261493,53.9680705,58.4099549,Башкортостан,Beloretsk,Белорецк,город
253266942,54.5896800,55.3856050,Башкортостан,,Чишмы,рабочий посёлок
253331857,55.6149602,36.9887625,Московская область,Golitsyno,Голицыно,город
253338946,55.5064780,36.0213092,Московская область,Mozhaisk,Можайск,город
253338948,55.6014428,36.4662973,Московская область,Tuchkovo,Тучково,посёлок городского типа
253338949,55.5755486,36.6952802,Московская область,Kubinka,Кубинка,город
253338950,55.7293613,36.8585382,Московская область,Zvenigorod,Звенигород,город
253338954,55.6321572,37.0110986,Московская область,Bolshiye Vyazyomy,Большие Вязёмы,посёлок городского типа
253397948,55.2067186,36.4813883,Калужская область,Borovsk,Боровск,город
253438546,55.8217545,37.3400897,Московская область,Krasnogorsk,Красногорск,город
253438581,55.8394789,37.1770987,Московская область,Nakhabino,Нахабино,посёлок городского типа
253438739,55.9145993,36.8595482,Московская область,Istra,Истра,город
253732932,55.4220000,38.2591000,Московская область,Bronnitsy,Бронницы,город
253737355,48.2877616,46.1744879,Астраханская область,Akhtubinsk,Ахтубинск,город
253814474,45.6123531,38.9504299,Краснодарский край,Timashevsk,Тимашёвск,город
254554018,44.6771120,34.4095393,,Alushta,Алушта,город
254587738,57.9594730,102.7341920,Иркутская область,Ust-Ilimsk,Усть-Илимск,город
254855683,60.4197960,44.2545510,Вологодская область,,Нюксеница,село
254862887,59.9736254,42.7587335,Вологодская область,Totma,Тотьма,город
255184479,56.2541234,37.9908107,Московская область,Khotkovo,Хотьково,город
255594586,56.4773340,53.8192957,,Sarapul,Сарапул,город
255910496,54.5712666,20.1734409,Калининградская область,Ladushkin,Ладушкин,город
255954981,56.4426833,52.2138722,Удмуртия,Mozhga,Можга,город
256195802,56.0718871,37.5613540,Московская область,Marfino,Марфино,село
256361815,56.0314640,35.5102036,Московская область,Shakhovskaya,Шаховская,посёлок городского типа
256361817,55.5069136,37.5673544,Москва,Shcherbinka,Щербинка,город
256361832,55.4368213,37.7680693,Московская область,Domodedovo,Домодедово,город
256361842,55.5571496,37.7087142,Московская область,Vidnoye,Видное,город
256361843,55.5709361,38.2282099,Московская область,Ramenskoye,Раменское,город
256361844,55.8413710,38.1967476,Московская область,Monino,Монино,посёлок городского типа
256361845,55.8070323,38.1774172,Московская область,Staraya Kupavna,Старая Купавна,город
256361846,55.7622453,37.8565550,Московская область,Reutov,Реутов,город
256361847,55.8792983,38.7858721,Московская область,Elektrogorsk,Электрогорск,город
256361848,55.7448093,38.8491341,Московская область,Drezna,Дрезна,город
256361850,55.5784030,39.5437584,Московская область,Shatura,Шатура,город
256361853,55.9310313,39.4599489,Владимирская область,Petushki,Петушки,город
256361854,55.9196010,39.1772776,Владимирская область,Pokrov,Покров,город
256361855,56.1345496,38.4454114,Московская область,Fryanovo,Фряново,рабочий посёлок
256361856,56.0061165,38.3835224,Московская область,Chernogolovka,Черноголовка,город
256361857,56.1374270,37.9305867,Московская область,Sofrino,Софрино,рабочий посёлок
256361858,56.1210895,38.1457655,Московская область,Krasnoarmeysk,Красноармейск,город
256361859,56.5626500,37.4255388,Московская область,Zaprudnya,Запрудня,посёлок городского типа
256361860,56.5268495,37.6003039,Московская область,,Вербилки,посёлок городского типа
256361864,56.2899360,37.4838441,Московская область,Yakhroma,Яхрома,город
256361865,55.6998907,36.1946992,Московская область,Ruza,Руза,город
256361867,55.3432380,36.1851450,Московская область,Vereya,Верея,город
256361869,54.8865980,38.0772589,Московская область,Stupino,Ступино,город
256361870,54.8374490,38.1505119,Московская область,Kashira,Кашира,город
256361871,54.8347213,37.6139685,Московская область,Pushchino,Пущино,город
256361872,54.4792708,37.6933290,Тульская область,Yasnogorsk,Ясногорск,город
256361873,54.8542090,38.5598853,Московская область,Ozyory,Озёры,город
256361874,54.7585694,38.8818137,Московская область,Zaraysk,Зарайск,город
256361878,54.9442460,39.3396130,Московская область,,Белоомут,посёлок городского типа
256361879,56.4405070,38.2443390,Московская область,,Краснозаводск,город
256361882,56.2288910,35.6399029,Московская область,,Лотошино,посёлок городского типа
256361884,56.0104274,37.8461892,Московская область,Pushkino,Пушкино,город
256361885,56.2422530,37.5203680,Московская область,,Деденёво,посёлок городского типа
256361886,56.4158101,38.1736347,Московская область,Peresvet,Пересвет,город
256361887,55.7184467,38.2228192,Московская область,Elektrougli,Электроугли,город
256361889,55.8705593,38.2032701,Московская область,Losino-Petrovsky,Лосино-Петровский,город
256361890,55.9714098,37.9200739,,Ivanteyevka,Ивантеевка,город
256443047,56.1541534,48.3206246,Марий Эл,,Красногорский,посёлок городского типа
256579283,45.7093755,34.3899131,,Dzhankoy,Джанкой,город
256825509,57.8812830,41.7124210,Костромская область,,Судиславль,посёлок городского типа
256825510,57.8050420,42.2405320,Костромская область,,Островское,посёлок
256827430,57.7844850,43.1894110,Костромская область,Kady,Кадый,посёлок городского типа
256827431,57.8804020,43.8072400,Костромская область,Makaryev,Макарьев,город
256827434,58.3725700,45.5193060,Костромская область,Sharya,Шарья,город
256827435,58.3944470,45.4713820,Костромская область,,Ветлужский,посёлок городского типа
256827438,58.3581540,46.3174290,Костромская область,,Поназырево,посёлок городского типа
256827443,58.3053524,48.3372596,Кировская область,Kotelnich,Котельнич,город
256827444,58.3039430,48.6406810,Кировская область,,Мирный,посёлок городского типа
256827445,58.5363174,48.8850765,Кировская область,Orlov,Орлов,город
256827447,58.7354596,49.4610823,Кировская область,,Мурыгино,посёлок городского типа
256827452,58.6683040,52.1762500,Кировская область,Omutninsk,Омутнинск,город
257906827,60.5325380,28.6697439,Ленинградская область,Sovetskii,Советский,городской посёлок
258828718,55.6309186,37.8496653,Московская область,Dzerzhinsky,Дзержинский,город
258834478,55.5822477,37.9080217,Московская область,Lytkarino,Лыткарино,город
259862730,53.8117980,36.1370010,Тульская область,Belyov,Белёв,город
259862820,54.0371020,35.7801020,Калужская область,Kozelsk,Козельск,город
260964928,58.2442424,52.1079326,,Yar,Яр,посёлок
261008814,54.9482270,20.2259100,Калининградская область,Pionersky,Пионерский,город
261667935,54.8028000,35.9322000,Калужская область,Kondrovo,Кондрово,город
262522404,55.2103563,34.2995187,Смоленская область,,Вязьма,город
262625960,57.8069420,41.1049080,Костромская область,,,
262830281,58.4013081,49.0564965,Кировская область,Orichi,Оричи,посёлок городского типа
264180569,55.6116980,37.3002550,,Vnukovo,Внуково,посёлок
264351243,54.6974517,44.8612893,Нижегородская область,Pochinki,Починки,село
264358670,57.3012512,47.8773055,Кировская область,Yaransk,Яранск,город
264365304,57.5861888,48.9586978,Кировская область,Sovetsk,Советск,город
264365776,57.3049331,47.2089404,Кировская область,Kiknur,Кикнур,посёлок городского типа
264365777,57.6730182,46.6152378,Нижегородская область,,Шахунья,город
264366303,57.1268348,45.1664096,Нижегородская область,,Красные Баки,рабочий посёлок
264367550,55.0348210,44.4927250,Нижегородская область,,Лукоянов,город
265316295,55.3368374,41.6314063,Владимирская область,,Меленки,город
265727566,55.5440710,42.1886710,Нижегородская область,Navashino,Навашино,город
265857299,55.1308670,40.1760370,Рязанская область,Spas-Klepiki,Спас-Клепики,город
265998757,55.6452616,38.0042385,Московская область,Malakhovka,Малаховка,посёлок городского типа
266034277,55.6524418,38.0628479,Московская область,Rodniki,Родники,дачный посёлок
266213137,55.3187740,42.1800408,,Vyksa,Выкса,город
266213444,55.4292870,42.5118790,Нижегородская область,,Кулебаки,город
266295150,56.5072000,38.8419000,Владимирская область,,Балакирево,посёлок городского типа
266714836,54.6355330,21.8099822,Калининградская область,Chernyakhovsk,Черняховск,город
267102723,55.6587214,37.9798073,Московская область,Kraskovo,Красково,дачный посёлок
267622126,55.0897250,36.6613397,Калужская область,Belousovo,Белоусово,город
268739870,57.4055940,67.0717700,Тюменская область,,Ярково,село
268926481,58.4060241,51.1388605,Кировская область,Zuevka,Зуевка,город
269243483,55.0338000,36.7489000,Калужская область,Zhukov,Жуков,город
269342417,68.9706650,33.0749700,Мурманская область,Murmansk,Мурманск,город
269806572,56.3740000,38.5860000,Владимирская область,Strunino,Струнино,город
270420987,55.3879473,36.7398309,Московская область,Naro-Fominsk,Наро-Фоминск,город
270529337,44.1424034,43.0090751,Ставропольский край,Zheleznovodsk,Железноводск,город
270531692,44.2107377,43.1349690,Ставропольский край,Mineralnye Vody,Минеральные Воды,город
270691553,46.1352557,39.7829180,Краснодарский край,Pavlovskaya,Павловская,станица
270875270,58.8424070,57.5550580,Пермский край,Gubakha,Губаха,город
271172616,55.6533898,37.9464009,Московская область,Tomilino,Томилино,посёлок городского типа
271231306,55.1426603,37.4545328,Московская область,Chekhov,Чехов,город
271277492,58.0390973,56.7488434,Пермский край,,Сылва,посёлок
271283522,54.7293536,37.1815538,Калужская область,Tarusa,Таруса,город
271954653,54.9777950,60.3700900,Челябинская область,Chebarkul,Чебаркуль,город
272601866,57.4288440,56.9443280,Пермский край,Kungur,Кунгур,город
272616339,58.0720990,54.6674784,Пермский край,Vereshchagino,Верещагино,город
272616739,57.8964460,53.7139210,Удмуртия,,Кез,посёлок
272625640,58.0812613,55.7586943,,Krasnokamsk,Краснокамск,город
272820696,56.2164690,43.2967640,Нижегородская область,,Решетиха,рабочий посёлок
272845466,69.4062217,30.2114216,Мурманская область,Nikel,Никель,посёлок городского типа
273195256,56.3333942,28.8920106,Псковская область,Idritsa,Идрица,рабочий посёлок
273215574,59.4453384,29.4838591,Ленинградская область,Volosovo,Волосово,город
273215575,59.4126621,30.3496831,Ленинградская область,Vyritsa,Вырица,городской посёлок
273215576,59.6221955,30.3919223,Ленинградская область,Kommunar,Коммунар,город
273310116,54.5994324,52.4469099,Татарстан,Lenintaw,Лениногорск,город
274749672,57.1463922,57.3951339,Пермский край,Suksun,Суксун,посёлок городского типа
275186298,45.3080619,33.0357639,,Mirnyi,Мирный,посёлок городского типа
275666218,54.3183440,40.8877680,Рязанская область,,Шилово,посёлок городского типа
275772033,52.0778859,104.0918894,Иркутская область,Bolshoy Lug,Большой Луг,посёлок
275772536,52.2097478,104.0976830,Иркутская область,Shelekhov,Шелехов,город
275803988,56.2509380,93.5328600,Красноярский край,Zheleznogorsk,Железногорск,город
275804020,56.1214940,93.3387300,Красноярский край,Sosnovoborsk,Сосновоборск,город
275804138,55.8997187,94.8930452,Красноярский край,Borodino,Бородино,город
275804147,55.8099860,94.3277740,Красноярский край,Uyar,Уяр,город
275804229,55.9654010,94.7081070,Красноярский край,Zaozyorny,Заозёрный,город
275805295,58.2235110,92.4859700,Красноярский край,Lesosibirsk,Лесосибирск,город
275805315,58.4532212,92.1748169,Красноярский край,Yeniseysk,Енисейск,город
275806099,56.0115930,90.4185030,Красноярский край,Nazarovo,Назарово,город
275807106,55.5329127,89.1864204,Красноярский край,Sharypovo,Шарыпово,город
275807520,55.9596440,92.3754200,Красноярский край,Divnogorsk,Дивногорск,город
275808256,53.7003250,91.6972350,Красноярский край,Minusinsk,Минусинск,город
275808402,52.9983060,91.4870830,,Mayna,Майна,посёлок городского типа
275808498,53.0899015,91.4128377,,Sayanogorsk,Саяногорск,город
276092539,55.3197221,89.8424197,Красноярский край,Uzhur,Ужур,город
276092580,55.5549560,98.6654191,Иркутская область,Alzamay,Алзамай,город
276092772,54.3441540,101.5061950,Иркутская область,Kuytun,Куйтун,посёлок городского типа
276092773,54.1123301,102.1785158,Иркутская область,Sayansk,Саянск,город
276092774,53.9284020,102.0527270,Иркутская область,Zima,Зима,город
276092781,53.5662380,102.5159910,Иркутская область,Zalari,Залари,посёлок городского типа
276092950,53.1484340,103.0701450,Иркутская область,Cheremkhovo,Черемхово,город
276092975,53.0662690,103.3423310,Иркутская область,Svirsk,Свирск,город
276092977,52.7512013,103.6621625,Иркутская область,Usolye-Sibirskoye,Усолье-Сибирское,город
276093348,51.5171917,104.1410261,,Baykalsk,Байкальск,город
276104425,59.4627990,40.1128580,Вологодская область,Sokol,Сокол,город
276113583,50.3851808,116.5330685,Забайкальский край,Borzya,Борзя,город
276113713,49.6446530,117.3290250,Забайкальский край,Zabaykalsk,Забайкальск,посёлок городского типа
276627958,64.5216684,34.7625835,,Belomorsk,Беломорск,город
276628719,64.5430220,40.5371210,Архангельская область,Arkhangelsk,Архангельск,город
276646949,58.1888080,40.1751140,Ярославская область,Danilov,Данилов,город
276994866,46.8193630,134.2548220,Хабаровский край,Bikin,Бикин,город
277007085,46.4443195,134.3006729,Приморский край,Luchegorsk,Лучегорск,посёлок городского типа
277057968,45.9337195,133.7349056,Приморский край,Dalneretschensk,Дальнереченск,город
277060596,47.5334550,134.7578740,Хабаровский край,Vyazemskiy,Вяземский,город
277060995,48.4812568,135.0762968,,Khabarovsk,Хабаровск,город
277113009,49.7939604,129.8734105,Амурская область,,Новобурейский,посёлок городского типа
277118590,51.3773540,128.1347500,Амурская область,Svobodny,Свободный,город
277139530,51.9987022,127.6719156,Амурская область,Shimanovsk,Шимановск,город
277531139,52.9812850,49.7111930,Самарская область,Chapaevsk,Чапаевск,город
277576357,53.7362642,119.7624853,Забайкальский край,Mogocha,Могоча,город
277678134,44.9897066,37.2607195,Краснодарский край,Vityazevo,Витязево,село
277750915,54.4193230,86.3034290,Кемеровская область,Belovo,Белово,город
278023046,55.2169610,75.9621960,Новосибирская область,Tatarsk,Татарск,город
278141459,56.8306540,28.2845950,Псковская область,Krasnogorodsk,Красногородск,посёлок городского типа
278211683,61.3149709,63.3315999,,Yugorsk,Югорск,город
278216664,61.3620990,63.5735400,,Sovetskiy,Советский,город
278298564,51.9769400,116.5883410,,Nerchinsk,Нерчинск,город
278380012,53.7403584,127.2716246,Амурская область,Zeya,Зея,город
278762572,53.9433810,40.6826073,Рязанская область,Sapozhok,Сапожок,посёлок городского типа
278769413,53.7911380,40.4882740,Рязанская область,Uholovo,Ухолово,посёлок городского типа
278770412,53.7088780,40.0629840,Рязанская область,Ryazhsk,Ряжск,город
278876144,57.6934620,71.1699680,Омская область,Ust-Ishim,Усть-Ишим,село
278907444,56.8151550,70.6053620,Тюменская область,,Викулово,село
278991732,54.3666760,81.9040220,Новосибирская область,Ordynskoye,Ордынское,рабочий посёлок
278992054,53.7936761,81.3516358,Алтайский край,Kamen-na-Obi,Камень-на-Оби,город
279013780,61.6612985,40.1970404,Архангельская область,Nyandoma,Няндома,город
279240513,54.5984354,61.2311885,Челябинская область,Krasnogorskiy,Красногорский,посёлок городского типа
279978754,56.7810026,105.7460255,Иркутская область,Ust-Kut,Усть-Кут,город
279980750,55.6359670,109.3356480,Бурятия,Severobaikalsk,Северобайкальск,город
279983984,51.2895160,106.5270080,Бурятия,Gusinoozyorsk,Гусиноозёрск,город
279985581,50.3531760,106.4491500,Бурятия,Kyakhta,Кяхта,город
279987689,55.1496940,124.7375884,Амурская область,Tynda,Тында,город
280067854,56.8404080,124.9047160,Республика Саха (Якутия),Chulman,Чульман,посёлок городского типа
280078404,58.9685360,126.2668530,Республика Саха (Якутия),Tommot,Томмот,город
280109123,60.8942180,131.9799800,Республика Саха (Якутия),Amga,Амга,село
280162925,56.1921690,86.6371690,Кемеровская область,Izhmorsky,Ижморский,посёлок городского типа
280182070,62.7797320,148.1536100,Магаданская область,Susuman,Сусуман,город
280183184,64.5663760,143.2378390,Республика Саха (Якутия),Ust-Nera,Усть-Нера,посёлок городского типа
280304251,54.7579500,83.1068095,Новосибирская область,Berdsk,Бердск,город
280352393,53.9847680,79.2285770,Новосибирская область,Krasnozyorskoye,Краснозёрское,рабочий посёлок
280352878,54.3347660,80.4878460,Новосибирская область,Kochki,Кочки,село
280404821,50.2695927,85.6155842,,Ust-Koksa,Усть-Кокса,село
280513195,51.2922638,85.6739928,,Shebalino,Шебалино,село
280513628,52.0046840,85.8987430,Республика Алтай,Mayma,Майма,село
280521185,50.9320030,84.7652130,,Ust-Kan,Усть-Кан,село
280548716,51.9994856,84.9860861,Алтайский край,Belokurikha,Белокуриха,город
280550570,52.2599560,87.1175380,Республика Алтай,Turochak,Турочак,село
280822642,51.3680150,42.0751690,Воронежская область,Borisoglebsk,Борисоглебск,город
281293974,51.4069060,86.0035710,Республика Алтай,Chemal,Чемал,село
281427282,53.7839240,82.3162310,Новосибирская область,Suzun,Сузун,рабочий посёлок
281428332,53.4174823,82.5971994,Алтайский край,,Шелаболиха,село
281428653,53.3133356,82.9899119,Алтайский край,Pavlovsk,Павловск,село
281428696,53.2547490,83.6938860,,Yuzhny,Южный,посёлок городского типа
281428908,53.3933410,83.9394070,Алтайский край,Novoaltaysk,Новоалтайск,город
281429248,53.5570680,83.8384250,Алтайский край,Sibirsky,Сибирский,посёлок городского типа
281431381,53.8176306,83.5620110,Алтайский край,Talmenka,Тальменка,посёлок городского типа
281431442,54.2261010,83.3704680,Новосибирская область,Cherepanovo,Черепаново,город
281431602,54.4564590,83.3790740,Новосибирская область,Linyovo,Линёво,рабочий посёлок
281431605,54.6426269,83.3035676,Новосибирская область,Iskitim,Искитим,город
281431826,55.3567611,78.3503480,Новосибирская область,Barabinsk,Барабинск,город
281433268,55.1929899,80.2828252,Новосибирская область,Kargat,Каргат,город
281433500,55.0900000,80.9704590,Новосибирская область,Chulym,Чулым,город
281613050,51.7069911,46.7483653,Саратовская область,Marx,Маркс,город
282045438,55.4302632,36.8684242,Москва,Kiyevsky,Киевский,посёлок
282462417,58.3740782,33.3009383,Новгородская область,Okulovka,Окуловка,город
282596576,61.9570660,129.9113460,Республика Саха (Якутия),Nizhny Bestyakh,Нижний Бестях,посёлок городского типа
282635858,57.6423554,32.4646788,Новгородская область,Demyansk,Демянск,рабочий посёлок
282656834,57.1507610,31.1826780,Новгородская область,Kholm,Холм,город
282671987,58.1190030,30.3096790,Новгородская область,,Сольцы,город
282914618,53.7344700,78.0323720,Новосибирская область,Karasuk,Карасук,город
282914871,52.9892428,78.6462510,Алтайский край,Slavgorod,Славгород,город
283030477,47.1139219,39.4259657,Ростовская область,Azov,Азов,город
283088823,53.6236801,79.5404777,Алтайский край,,Хабары,село
283088976,53.8328616,80.3442706,Алтайский край,Pankrushikha,Панкрушиха,село
283530592,57.8836175,54.7158230,Пермский край,Otchor,Очёр,город
283579400,58.2909057,56.4136872,Пермский край,Polazna,Полазна,посёлок городского типа
283581865,58.4534571,56.4245447,Пермский край,Dobryanka,Добрянка,город
283588621,53.9862567,123.9373454,Амурская область,Skovorodino,Сковородино,город
283703527,53.3494147,102.7949052,,Kutulik,Кутулик,посёлок
285339173,52.7032590,55.8347360,Башкортостан,Yermolayevo,Ермолаево,село
285340786,54.2180600,90.8560260,Республика Хакасия,Bograd,Боград,село
285360076,54.4876400,89.9628910,Республика Хакасия,Shira,Шира,село
285365947,54.9929660,89.8266220,,Kopyovo,Копьёво,посёлок
285580257,58.2693219,29.1115963,,Strugi Krasnye,Струги Красные,рабочий посёлок
285734826,60.4017837,57.0767045,Пермский край,Krasnovishersk,Красновишерск,город
285736628,59.6494370,56.7795940,,Solikamsk,Соликамск,город
285736802,59.4180251,56.6830803,Пермский край,Usolye,Усолье,город
285738845,59.3321491,57.2661550,Пермский край,,Яйва,посёлок городского типа
285745298,59.1593861,57.5861232,Пермский край,Alexandrovsk,Александровск,город
285746241,59.0492520,57.6535000,Пермский край,Kizel,Кизел,город
285749160,58.2820550,57.8210750,Пермский край,Chusovoy,Чусовой,город
285889059,53.8282360,91.3132100,,Chernogorsk,Черногорск,город
285962678,56.1700710,34.5851820,Тверская область,Zubtsov,Зубцов,город
286084866,51.1730870,90.5934434,,Ak-Dovurak,Ак-Довурак,город
286085202,51.2860180,91.5828170,,Chadan,Чадан,город
286085444,51.5387210,92.9194074,,Shagonar,Шагонар,город
286085489,52.1458093,93.9186434,,Turan,Туран,город
286200781,51.4926260,95.5546810,,Saryg-Sep,Сарыг-Сеп,село
286203959,51.1454611,90.5814803,,Kyzyl-Mazhalyk,Кызыл-Мажалык,село
286214595,52.6510546,90.1011590,,Abaza,Абаза,город
286523928,54.0845490,61.5519910,,Troitsk,Троицк,город
286554085,61.4832700,129.1540617,,Pokrovsk,Покровск,город
286560902,47.0545875,142.0487125,Сахалинская область,Kholmsk,Холмск,город
286831504,51.9103810,39.3421440,Воронежская область,,Рамонь,посёлок городского типа
286923453,56.6766700,96.0677640,Красноярский край,,Абан,посёлок
286953863,59.1426580,68.8947750,Тюменская область,,Уват,село
286982957,48.6926990,43.5240630,Волгоградская область,Kalach-na-Donu,Калач-на-Дону,город
287005365,50.4623260,48.1355320,Саратовская область,Novouzensk,Новоузенск,город
287039558,46.4766690,41.5410080,Ростовская область,Salsk,Сальск,город
287040070,47.1489180,42.4649700,Ростовская область,,Зимовники,посёлок
287050506,56.7846620,53.3776005,Удмуртия,Zav'yalovo,Завьялово,село
287260036,58.3890090,33.9068275,Новгородская область,Borovichi,Боровичи,город
287337481,65.5336238,72.5113955,Ямало-Ненецкий автономный округ,Nadym,Надым,город
287387383,43.7715594,41.9119790,,Karachayevsk,Карачаевск,город
287411141,43.7590017,44.0103981,,Prokhladny,Прохладный,город
287516647,43.0398410,44.2204510,,Alagir,Алагир,город
287660963,42.8881414,47.6424676,,Kaspiysk,Каспийск,город
287661153,42.5710804,47.8629990,Дагестан,Izberbash,Избербаш,город
287662481,41.6758118,48.1516324,Дагестан,Kasumkent,Касумкент,село
287670803,42.8260906,47.1219624,Дагестан,Buynaksk,Буйнакск,город
287673747,42.1152434,48.1864201,Дагестан,Dagestanskiye Ogni,Дагестанские Огни,город
287686736,43.1999049,46.8713343,Дагестан,Kizilyurt,Кизилюрт,город
287687179,44.6622310,45.6451380,Дагестан,Yuzhno-Sukhokumsk,Южно-Сухокумск,город
287702846,43.2950455,45.8688918,,Argun,Аргун,город
287703730,43.3486103,46.0959450,,Gudermes,Гудермес,город
287704409,43.1539420,45.9065780,,Shali,Шали,город
287756202,52.0121253,48.8109795,,Pugachyov,Пугачёв,город
287798315,43.3094909,44.9103340,Ингушетия,Karabulak,Карабулак,город
288089948,57.5467442,53.0991803,Удмуртия,Igra,Игра,посёлок
288092970,58.2655790,54.9272080,Пермский край,Karagay,Карагай,село
288096530,59.0146060,54.6641350,Пермский край,Kudymkar,Кудымкар,город
288115144,58.3740010,58.3250580,Пермский край,Gornozavodsk,Горнозаводск,город
288119622,58.6981697,59.4810114,Свердловская область,Kachkanar,Качканар,город
288126203,59.6051267,60.5733483,Свердловская область,Serov,Серов,город
288418650,54.0799640,42.8374250,Мордовия,Zubova Polyana,Зубова Поляна,рабочий посёлок
288419752,53.1125140,46.6007270,Пензенская область,Kuznetsk,Кузнецк,город
288472058,55.4908093,60.8776278,Челябинская область,Argayash,Аргаяш,село
288476845,55.7099215,60.5511275,Челябинская область,Kyshtym,Кыштым,город
288477933,56.0520290,60.2264480,Челябинская область,Verkhniy Ufaley,Верхний Уфалей,город
288795864,52.9197040,78.5635680,Алтайский край,Yarovoye,Яровое,город
289011795,57.2829207,55.4602059,Пермский край,Osa,Оса,город
289146963,57.0052746,61.4580765,Свердловская область,Asbest,Асбест,город
289464809,55.0859006,82.6440062,Новосибирская область,,Криводановка,село
289835271,52.0131939,86.5442210,Республика Алтай,Choya,Чоя,село
289843365,53.3883480,103.8774570,Иркутская область,Osa,Оса,село
289890249,52.5665590,78.9354480,Алтайский край,Kulunda,Кулунда,село
289980364,55.0490910,74.5824280,Омская область,Kalachinsk,Калачинск,город
289992321,55.3710330,74.3625560,Омская область,Gorkovskoye,Горьковское,рабочий посёлок
289994080,54.2096900,72.9655380,Омская область,Odesskoye,Одесское,село
289996348,53.7803570,73.8821030,Омская область,Russkaya Polyana,Русская Поляна,рабочий посёлок
290070312,55.4858090,60.2095410,Челябинская область,Karabash,Карабаш,город
290215681,54.7039680,78.6675950,Новосибирская область,Zdvinsk,Здвинск,село
290330613,54.2831380,86.1047590,Кемеровская область,Bachatsky,Бачатский,посёлок городского типа
290611540,57.1161230,61.3976630,Свердловская область,Malysheva,Малышева,посёлок городского типа
290781841,65.7934285,87.9589375,Красноярский край,Turukhansk,Туруханск,село
290875518,54.5156060,36.7624590,Калужская область,,Ферзиково,посёлок городского типа
290875724,54.4746020,36.0500980,Калужская область,,Воротынск,посёлок городского типа
290875760,54.7426018,35.9977093,Калужская область,,Полотняный Завод,посёлок городского типа
290884076,50.3920940,106.1061400,Бурятия,Naushki,,посёлок городского типа
290884279,57.2470470,60.0958180,Свердловская область,Novouralsk,Новоуральск,город
290884698,57.4924036,60.2105408,Свердловская область,Nevyansk,Невьянск,город
290885736,59.0527340,60.5959740,Свердловская область,Novaya Lyalya,Новая Ляля,город
290889369,52.0554080,106.6543200,Бурятия,Kabansk,Кабанск,село
290905151,44.3170538,38.7043664,Краснодарский край,Dzhubga,Джубга,посёлок городского типа
290911788,43.6590048,39.6544373,,Dagomys,Дагомыс,посёлок городского типа
291558905,55.3832210,91.6152730,Красноярский край,Balakhta,Балахта,посёлок городского типа
291614444,52.3161330,34.0759496,Брянская область,Suzemka,Суземка,посёлок городского типа
291860771,54.3455010,84.2106700,Новосибирская область,Maslyanino,Маслянино,рабочий посёлок
291942235,56.4421080,60.1658590,Свердловская область,Polevskoy,Полевской,город
292226474,69.4009250,32.4413340,Мурманская область,Zaozersk,Заозёрск,город
292231968,69.2503590,33.3152810,Мурманская область,Gadzhiyevo,Гаджиево,город
292235034,69.1995240,33.4458390,Мурманская область,Polyarny,Полярный,город
292879578,55.0416870,43.2455180,,Diveyevo,Дивеево,село
292885144,56.0870090,60.7326740,Челябинская область,Snezhinsk,Снежинск,город
292995540,44.7522963,33.8534782,,Bakhchysarai,Бахчисарай,город
293459034,68.8169560,32.8165050,Мурманская область,Murmashi,Мурмаши,посёлок городского типа
293459492,68.8806380,33.0197260,Мурманская область,Kola,Кола,город
293591177,55.6715707,84.3885570,Новосибирская область,Bolotnoye,Болотное,город
295072813,52.3659740,115.5509490,Забайкальский край,Vershino-Darasunsky,Вершино-Дарасунский,посёлок городского типа
295119416,56.1139351,88.5171814,Кемеровская область,Tyazhinskiy,Тяжинский,посёлок городского типа
295381557,45.2178027,39.6896725,Краснодарский край,Ust-Labinsk,Усть-Лабинск,город
295384821,45.1183262,39.4200463,Краснодарский край,Vasyurinskaya,Васюринская,станица
295385084,45.2120476,39.5670828,Краснодарский край,Voronezhskaya,Воронежская,станица
295385847,45.2962422,39.2662799,Краснодарский край,Plastunovskaya,Пластуновская,станица
295386031,45.3919810,39.3903857,Краснодарский край,Platnirovskaya,Платнировская,станица
295729620,45.0480573,38.7928963,Краснодарский край,Yelizavetinskaya,Елизаветинская,станица
295730787,45.1987319,38.5795212,Краснодарский край,Novomyshastovskaya,Новомышастовская,станица
295754500,45.2168713,39.2249757,Краснодарский край,Dinskaya,Динская,станица
295862317,54.9722866,48.2928964,Татарстан,Bua,Буинск,город
295864677,55.3714831,50.6367311,Татарстан,Çistay,Чистополь,город
295868224,56.0909916,49.8771828,Татарстан,Arça,Арск,город
295896340,56.8558465,41.3838496,Ивановская область,Shuya,Шуя,город
295902357,53.2780460,92.3960880,Красноярский край,Yermakovskoye,Ермаковское,село
295939729,53.3278200,91.9453740,Красноярский край,Shushenskoye,Шушенское,посёлок городского типа
295945680,52.8483770,91.4203800,,Cheremushki,Черёмушки,посёлок городского типа
295952416,53.8880920,92.6802220,Красноярский край,Kuragino,Курагино,посёлок городского типа
296081305,57.5579577,49.9294668,Кировская область,Nolinsk,Нолинск,город
296086848,57.5052656,50.5021661,Кировская область,Nema,Нема,посёлок городского типа
296087893,56.9449015,51.0613993,Кировская область,Kilmez,Кильмезь,посёлок городского типа
296100014,56.5206314,50.6775905,Кировская область,Malmyzh,Малмыж,город
296113691,57.1101118,50.0003067,Кировская область,Urzhum,Уржум,город
296120086,57.1081378,51.6147316,Удмуртия,Syumsi,Сюмси,село
296130162,56.9826616,52.1884394,,Uva,Ува,посёлок
296134100,55.9407976,46.2006586,Чувашия,Yadrin,Ядрин,город
296138675,55.8705560,72.1966170,Омская область,Tyukalinsk,Тюкалинск,город
296140782,55.2400890,72.9238890,Омская область,Krasny Yar,Красный Яр,рабочий посёлок
296161951,44.7614149,39.8712943,Краснодарский край,Belorechensk,Белореченск,город
296346416,45.5806221,39.6574237,Краснодарский край,Vyselki,Выселки,станица
296362274,44.9864341,38.9382841,Адыгея,Yablonovskiy,Яблоновский,посёлок городского типа
296362277,44.9230727,38.9071424,Адыгея,Enem,Энем,посёлок городского типа
296376882,44.9040435,38.8426821,Краснодарский край,Afipskiy,Афипский,посёлок городского типа
296376924,44.8534210,38.6781253,Краснодарский край,Severskaya,Северская,станица
296379510,44.8545750,38.5702615,Краснодарский край,Ilskiy,Ильский,посёлок городского типа
296379511,44.9295889,37.9880177,Краснодарский край,Krymsk,Крымск,город
296410521,56.5006820,56.0762788,Пермский край,Chernushka,Чернушка,город
296422834,56.4335060,55.5907630,Пермский край,,Куеда,посёлок
296537017,44.8851635,40.5894674,Краснодарский край,Kurganinsk,Курганинск,город
296884989,45.4856626,38.6598137,Краснодарский край,Kalininskaya,Калининская,станица
296886272,45.8006166,39.0003034,Краснодарский край,Bryukhovetskaya,Брюховецкая,станица
296886273,45.8446730,39.0218580,Краснодарский край,Pereyaslovskaya,Переясловская,станица
296886274,46.0848847,38.9724318,Краснодарский край,Kanevskaya,Каневская,станица
296886275,46.1277738,38.9713729,Краснодарский край,Staroderevyankovskaya,Стародеревянковская,станица
296937624,45.1212920,37.6387370,Краснодарский край,Varenikovskaya,Варениковская,станица
296992985,45.2188185,37.1480059,Краснодарский край,Starotitarovskaya,Старотитаровская,станица
297082357,45.3635681,40.1898342,Краснодарский край,Tbilisskaya,Тбилисская,станица
297082471,45.3076593,39.9268511,Краснодарский край,Ladozhskaya,Ладожская,станица
297513007,50.6317434,87.9561929,,Ulagan,Улаган,село
297546021,55.1464270,40.5502470,Рязанская область,Tuma,Тума,посёлок городского типа
297851423,45.4525812,39.0167858,Краснодарский край,Medvyodovskaya,Медведовская,станица
297958919,44.8432658,38.3950178,Краснодарский край,Kholmskaya,Холмская,станица
297958920,44.8422046,38.2954504,Краснодарский край,Akhtyrskiy,Ахтырский,посёлок городского типа
297958924,44.8649528,38.1578189,Краснодарский край,Abinsk,Абинск,город
298061350,46.6284506,38.6624971,Краснодарский край,Staroshcherbinovskaya,Старощербиновская,станица
298080404,45.2360889,38.9712606,Краснодарский край,Novotitarovskaya,Новотитаровская,станица
298352406,44.4618046,39.7410480,Краснодарский край,Apsheronsk,Апшеронск,город
298364538,45.8546790,40.1281240,Краснодарский край,Tikhoretsk,Тихорецк,город
298455987,44.8833775,39.1909625,Адыгея,Adygeysk,Адыгейск,город
298761165,45.7345350,38.7395550,Краснодарский край,Rogovskaya,Роговская,станица
299466010,44.9633478,35.2381272,,Koktebel,Коктебель,посёлок городского типа
300156975,54.3539200,41.9266430,Рязанская область,Sasovo,Сасово,город
300377090,59.8424000,31.5866570,Ленинградская область,Naziya,Назия,посёлок городского типа
300582728,57.1442457,103.9240720,,Novaya Igirma,Новая Игирма,посёлок городского типа
300612214,56.5779150,104.1229400,Иркутская область,Zheleznogorsk-Ilimsky,Железногорск-Илимский,город
300659754,58.5963290,99.1829150,Красноярский край,Kodinsk,Кодинск,город
300797342,53.9952770,37.8134190,Тульская область,Borodinskiy,Бородинский,посёлок
301014636,53.6247165,52.4182422,Оренбургская область,,Бугуруслан,город
301246150,54.9417584,22.4913626,Калининградская область,Krasnoznamensk,Краснознаменск,город
301304385,58.4206120,29.3706000,Псковская область,Plyussa,Плюсса,рабочий посёлок
301337780,55.6359979,38.0448181,Московская область,Udelnaya,Удельная,дачный посёлок
301425089,51.4787560,57.3507960,Оренбургская область,Kuvandyk,Кувандык,город
301489268,45.9538150,40.7072030,Краснодарский край,Novopokrovskaya,Новопокровская,станица
301490224,46.0784190,40.8637010,Краснодарский край,Belaya Glina,Белая Глина,село
301491695,45.6795540,40.2754060,Краснодарский край,Arkhangelskaya,Архангельская,станица
301586748,44.8646355,37.8608578,Краснодарский край,Nizhnebakanskaya,Нижнебаканская,станица
301586752,44.9002856,37.3832216,Краснодарский край,Anapskaya,Анапская,станица
301636452,57.7763560,108.1162950,Иркутская область,Kirensk,Киренск,город
301639437,60.7145488,114.9172123,Республика Саха (Якутия),Lensk,Ленск,город
301648440,54.7268415,39.5088612,Рязанская область,,Рыбное,город
301761027,62.5410770,113.9785840,Республика Саха (Якутия),Mirny,Мирный,город
301770161,66.4117680,112.2517294,Республика Саха (Якутия),Udachny,Удачный,город
301775279,63.2866480,118.3541490,Республика Саха (Якутия),Nyurba,Нюрба,город
301778109,63.7540820,121.6265490,Республика Саха (Якутия),Vilyuysk,Вилюйск,город
301789452,65.9516363,111.4917562,Республика Саха (Якутия),Aykhal,Айхал,посёлок городского типа
301822109,62.0982890,126.6998370,Республика Саха (Якутия),Berdigestyakh,Бердигестях,село
301956144,53.4107168,109.0311228,,Ust-Barguzin,Усть-Баргузин,посёлок городского типа
301959493,60.3730160,120.4387510,Республика Саха (Якутия),Olyokminsk,Олёкминск,город
302019058,52.2023878,107.6383949,,Turuntaevo,Турунтаево,село
302036717,53.9608190,105.8851470,Иркутская область,Kachug,Качуг,рабочий посёлок
302066783,62.1574550,117.6463320,Республика Саха (Якутия),Suntar,Сунтар,село
302372139,58.3105550,112.9034190,Иркутская область,Mama,Мама,посёлок городского типа
302394449,59.6252670,112.7502140,Республика Саха (Якутия),Peleduy,Пеледуй,посёлок городского типа
302524562,55.7835730,109.5717620,Бурятия,Nizhneangarsk,Нижнеангарск,посёлок городского типа
302534600,50.5886270,107.5992740,Бурятия,Bichura,Бичура,село
302605557,67.5495068,133.3874618,Республика Саха (Якутия),Verkhoyansk,Верхоянск,город
302878865,62.7182270,129.6642460,Республика Саха (Якутия),Namtsy,Намцы,село
303015164,66.6780339,34.3376019,Мурманская область,Umba,Умба,посёлок городского типа
303016392,55.0007130,45.3105050,Нижегородская область,Veliko Boldino,Большое Болдино,село
303019430,67.9415427,34.5489702,Мурманская область,Revda,Ревда,посёлок городского типа
303232160,44.1092655,40.7902989,Краснодарский край,Psebai,Псебай,посёлок городского типа
303353860,67.3740840,32.4957920,Мурманская область,Polarnie Zori,Полярные Зори,город
303486344,43.8549752,41.5853611,,Zelenchukskaya,Зеленчукская,станица
303968215,68.0544447,39.5129384,Мурманская область,Ostrovnoy,Островной,город
303973327,69.4262390,30.8199390,Мурманская область,Zapolyarnyy,Заполярный,город
303980218,69.0691680,33.4166560,Мурманская область,Severomorsk,Североморск,город
304025149,67.5630490,30.4741080,Мурманская область,Kovdor,Ковдор,город
304337561,54.4087410,22.0143590,Калининградская область,Ozyorsk,Озёрск,город
304552309,70.6193824,147.9023970,Республика Саха (Якутия),Chokurdakh,Чокурдах,посёлок городского типа
304552666,58.7430660,27.8156854,Псковская область,Gdov,Гдов,город
304605480,62.1353150,77.4626160,,Raduzhny,Радужный,город
304663037,52.4228480,136.4893800,Хабаровский край,Imeni Poliny Osipenko,имени Полины Осипенко,село
304718065,43.8880990,41.4534086,,Storozhevaya,Сторожевая,станица
304718066,43.9528755,41.1917906,,Pregradnaya,Преградная,станица
304718444,44.6347953,40.7242185,Краснодарский край,Labinsk,Лабинск,город
304718565,44.4138041,40.7899446,Краснодарский край,Mostovskoy,Мостовской,посёлок городского типа
304721209,50.2112960,38.1002270,Белгородская область,Valuyki,Валуйки,город
306174317,56.0368560,37.2333009,Московская область,Mendeleyevo,Менделеево,посёлок городского типа
306457009,59.7646310,60.1936117,Свердловская область,Krasnoturinsk,Краснотурьинск,город
306457427,59.7667893,60.0009267,Свердловская область,Karpinsk,Карпинск,город
306458157,59.9347177,60.0779677,Свердловская область,Volchansk,Волчанск,город
306545784,54.4678385,38.7223330,Московская область,Serebryanye Prudy,Серебряные Пруды,рабочий посёлок
307058961,63.1915130,64.4243010,,Igrim,Игрим,посёлок городского типа
307067079,62.5444310,65.6479261,,Priobye,Приобье,посёлок городского типа
307089440,60.1291200,64.8036270,,Uray,Урай,город
307395771,65.8565750,74.4947970,Ямало-Ненецкий автономный округ,,Пангоды,посёлок городского типа
307964759,58.9415250,57.5876960,Пермский край,Ugleural'skiy,Углеуральский,посёлок городского типа
307965249,58.5665970,57.8333890,Пермский край,Gremyachinsk,Гремячинск,город
308220097,58.1050560,57.8028461,Пермский край,Lysva,Лысьва,город
308259963,53.3864032,48.6780700,Самарская область,Shigony,Шигоны,село
308664931,57.6053835,47.9373723,Кировская область,,Тужа,посёлок городского типа
308800172,56.2229946,51.0749038,Кировская область,Vyatskiye Polyany,Вятские Поляны,город
308801345,53.4005122,49.4955657,Самарская область,Zhigulyevsk,Жигулёвск,город
308877563,50.7600670,59.5367770,Оренбургская область,Dombarovskiy,Домбаровский,посёлок
308879014,50.8203130,60.8502880,Оренбургская область,Svetly,Светлый,посёлок
308897102,53.3761750,51.3480530,Самарская область,Otradny,Отрадный,город
309065171,51.4503480,41.9607770,Воронежская область,,Грибановский,посёлок городского типа
309353206,54.2302170,39.0275380,Рязанская область,Mikhaylov,Михайлов,город
309493556,64.9550895,34.5697446,,Kem,Кемь,город
309773771,61.6932537,33.6224108,,Pryazha,Пряжа,посёлок городского типа
309965794,61.5717807,31.4744211,,Pitkyaranta,Питкяранта,город
310022311,43.7355840,44.6536140,,Mozdok,Моздок,город
310173070,52.6881260,35.7683370,Орловская область,Kromy,Кромы,посёлок городского типа
310352142,57.0589830,64.6406330,Свердловская область,,Тугулым,посёлок городского типа
310353722,57.0148160,63.7302440,Свердловская область,Talitsa,Талица,город
310353809,56.9506950,63.2465320,Свердловская область,Pyshma,Пышма,посёлок городского типа
310353926,56.8461610,62.7121540,Свердловская область,Kamyshlov,Камышлов,город
310354163,56.7683407,62.0520774,Свердловская область,Bogdanovich,Богданович,город
310354793,56.7616420,61.4142570,Свердловская область,Beloyarsky,Белоярский,посёлок городского типа
310586971,51.6439692,39.4107009,Воронежская область,Novaya Usman,Новая Усмань,село
310831029,59.3302800,66.0220720,,Mortka,Мортка,посёлок городского типа
310877933,57.6740420,63.0637780,Свердловская область,Irbit,Ирбит,город
310903862,55.8653058,39.0804943,Владимирская область,,Городищи,посёлок городского типа
310912076,59.4503250,32.0105780,Ленинградская область,Kirishi,Кириши,город
310963315,56.3123780,66.2671890,Тюменская область,,Упорово,село
310969957,56.8650170,68.6473468,Тюменская область,,Аромашево,село
311423386,45.4291446,35.8222792,,Shchyolkino,Щёлкино,город
311425368,45.2972840,35.7758985,,Lenino,Ленино,посёлок городского типа
311427965,45.3760000,36.2920000,,Bagerovo,Багерово,посёлок городского типа
312404669,60.9142910,34.1623540,Ленинградская область,Podporozhye,Подпорожье,город
312701724,54.3649290,77.3085400,Новосибирская область,Kupino,Купино,город
312992742,54.5694390,31.4394490,Смоленская область,Krasny,Красный,посёлок городского типа
313570754,53.8579402,46.3573236,Ульяновская область,Inza,Инза,город
313659859,58.2817570,59.7623290,Свердловская область,Kushva,Кушва,город
314413011,55.9903976,40.0150802,Владимирская область,Sobinka,Собинка,город
314794893,55.6149968,40.6708665,Владимирская область,Gus-Khrustalny,Гусь-Хрустальный,город
315635178,57.1957170,56.9054110,Пермский край,Orda,Орда,село
315635287,56.8836279,56.5755418,Пермский край,Uinskoye,Уинское,село
316080804,53.4395270,44.6059867,Пензенская область,Mokshan,Мокшан,посёлок городского типа
316226231,54.0587350,44.9543910,Мордовия,,Рузаевка,город
316230125,54.1276090,45.1276550,Мордовия,Yalga,Ялга,рабочий посёлок
316492711,51.8212486,79.7193176,Алтайский край,Mikhaylovskoe,Михайловское,село
317349619,56.3084431,38.6981274,Владимирская область,Karabanovo,Карабаново,город
317365509,53.4947753,42.6186410,Пензенская область,Zemetchino,Земетчино,посёлок городского типа
317365952,52.8943060,45.3927840,Пензенская область,Shemysheyka,Шемышейка,посёлок городского типа
317470882,55.6086034,37.9743705,Московская область,Oktyabrskiy,Октябрьский,посёлок городского типа
321203443,54.8283040,61.5920370,Челябинская область,Yetkul,Еткуль,село
321322750,55.8878706,52.3084430,Татарстан,Mindälä,Менделеевск,город
321657923,44.8488369,34.9710990,,Sudak,Судак,город
324648017,56.6332426,47.8030237,Марий Эл,,Медведево,посёлок городского типа
330401916,53.1387290,140.7249300,,Nikolayevsk-on-Amur,Николаевск-на-Амуре,город
330402488,59.3969942,35.9404250,Вологодская область,Babayevo,Бабаево,город
330421322,51.0711440,132.6054840,Хабаровский край,Novy Urgal,Новый Ургал,рабочий посёлок
330810024,66.8151630,65.8009163,Ямало-Ненецкий автономный округ,Kharp,Харп,посёлок городского типа
330823587,47.9686360,135.0549470,Хабаровский край,Pereyaslavka,Переяславка,рабочий посёлок
330823637,47.8825720,134.9609380,Хабаровский край,Khor,Хор,рабочий посёлок
330842003,63.5895298,53.9305546,,Sosnogorsk,Сосногорск,город
331180517,56.9301870,55.5869670,Пермский край,Barda,Барда,село
331569994,56.1848812,52.4755309,Удмуртия,Alnashi,Алнаши,село
331769948,61.1157040,47.9783100,Архангельская область,Il'insko-Podomskoe,Ильинско-Подомское,село
331793608,61.8130799,51.5744647,,,Корткерос,село
332349574,53.7735710,38.1269650,Тульская область,Bogoroditsk,Богородицк,город
332350145,53.1418340,38.1161880,Тульская область,Yefremov,Ефремов,город
332353039,52.3877980,38.9267200,Липецкая область,Zadonsk,Задонск,город
332370326,48.9196264,40.3918540,Ростовская область,Millerovo,Миллерово,город
332371008,48.7259206,40.3644632,Ростовская область,Tarasovsky,Тарасовский,посёлок
332371503,48.5245462,40.3261435,Ростовская область,Glubokiy,Глубокий,рабочий посёлок
332371954,48.3210807,40.2650679,Ростовская область,Kamensk-Shakhtinsky,Каменск-Шахтинский,город
333892426,54.9691700,41.7526930,Рязанская область,Elat'ma,Елатьма,посёлок городского типа
333892499,54.1213530,39.6052930,Рязанская область,Pronsk,Пронск,посёлок городского типа
333892507,54.2125470,40.4663090,Рязанская область,Lesnoy,Лесной,посёлок городского типа
333892554,54.0286870,41.7126010,Рязанская область,Shatsk,Шацк,город
333892561,54.0430110,39.7440110,Рязанская область,Novomichurinsk,Новомичуринск,город
333892583,53.9209900,40.0192110,Рязанская область,Korablino,Кораблино,город
334357259,52.7255400,58.8936960,Челябинская область,Kizil'skoye,Кизильское,село
334357268,52.5979190,58.3075600,Башкортостан,Baymak,Баймак,город
334357270,52.3452260,55.5075760,Оренбургская область,Oktyabrskoye,Октябрьское,село
334357276,52.2337070,57.4415470,Башкортостан,Zilair,Зилаир,село
334357300,51.7872240,56.3585130,Оренбургская область,Saraktash,Саракташ,посёлок
334357302,51.5209660,59.9402350,Оренбургская область,Adamovka,Адамовка,посёлок
334357309,51.4714430,58.4405170,Оренбургская область,Gay,Гай,город
334357327,52.4223974,60.3372556,Челябинская область,Bredy,Бреды,посёлок
334357334,51.0064390,55.6264800,Оренбургская область,Akbulak,Акбулак,посёлок
334371735,54.3165970,59.3846360,Башкортостан,Uchaly,Учалы,город
334371739,54.1480260,59.3745420,Челябинская область,Mezhozyorny,Межозёрный,посёлок городского типа
334371755,54.0103420,55.8864630,Башкортостан,Tolbazy,Толбазы,село
334371762,53.8961616,56.4705604,Башкортостан,Krasnousolskij,Красноусольский,село
334371765,53.8780020,59.2113800,Челябинская область,Verkhneuralsk,Верхнеуральск,город
334371776,53.5214103,59.8112001,Челябинская область,Fershampenuaz,Фершампенуаз,село
334371777,53.4546454,56.0439119,Башкортостан,Ishimbay,Ишимбай,город
334371783,53.2969470,59.1349140,Челябинская область,Agapovka,Агаповка,село
334371785,54.3698120,60.8070910,Челябинская область,Plast,Пласт,город
334371787,53.8131555,60.6532186,Челябинская область,Chesma,Чесма,село
334371788,54.3734210,60.0054470,Челябинская область,Uyskoe,Уйское,село
334371795,53.0532610,60.6391720,Челябинская область,Kartaly,Карталы,город
334723403,53.8235240,39.5492740,Рязанская область,Skopin,Скопин,город
334723420,53.7212373,40.9967135,Рязанская область,Sarai,Сараи,посёлок городского типа
334723480,53.5798390,39.4450620,Рязанская область,Miloslavskoye,Милославское,посёлок городского типа
334723506,53.3227111,40.6992188,Тамбовская область,Staroyuryevo,Староюрьево,село
334723508,53.2449990,40.2850990,Тамбовская область,Pervomayskiy,Первомайский,рабочий посёлок
334723509,53.2430150,39.9668010,Липецкая область,Chaplygin,Чаплыгин,город
334723512,53.2533095,39.1591798,Липецкая область,Dankov,Данков,город
334723518,53.2322010,41.3692020,Тамбовская область,Sosnovka,Сосновка,рабочий посёлок
334723521,53.2125410,39.4477568,Липецкая область,Lev Tolstoy,Лев Толстой,посёлок
334723558,52.8946613,40.5071721,Тамбовская область,Michurinsk,Мичуринск,город
334723570,52.8927990,40.7802010,Тамбовская область,,Дмитриевка,рабочий посёлок
334723573,52.8613369,39.8102066,Липецкая область,Dobroye,Доброе,село
335884516,67.4566185,86.5308425,Красноярский край,Igarka,Игарка,город
335978319,65.1155035,57.1616254,,Pechora,Печора,город
335978335,63.5050320,53.4080730,,Vodny,Водный,посёлок городского типа
335978346,63.4333190,53.5762940,,Yarega,Ярега,посёлок городского типа
335978361,62.7144620,56.1853790,,Troitsko-Pechorsk,Троицко-Печорск,посёлок городского типа
335978390,62.5982970,50.8879280,,Yemva,Емва,город
335978395,62.3582380,50.0821800,,Mikun',Микунь,город
335978419,62.2353641,45.0007897,Архангельская область,Verkhnyaya Toyma,Верхняя Тойма,село
335978447,61.6270030,50.7684780,,,,село
335978456,61.5563740,45.9341350,Архангельская область,Krasnoborsk,Красноборск,село
335978471,61.2486690,46.8837590,Архангельская область,Vychegodskiy,Вычегодский,рабочий посёлок
335978473,61.3151659,47.1607626,Архангельская область,Koryazhma,Коряжма,город
335978476,61.3313330,46.9189380,Архангельская область,Sol'vychegodsk,Сольвычегодск,город
335978498,60.6304027,47.2552897,Кировская область,Luza,Луза,город
335978507,60.7612852,46.3014666,Вологодская область,Velikiy Ustyug,Великий Устюг,город
335978516,60.9617195,46.4778243,Вологодская область,Krasavino,Красавино,город
335978520,60.9738120,40.2567100,Архангельская область,Konosha,Коноша,рабочий посёлок
335978540,60.4046807,56.4752752,Пермский край,Cherdyn,Чердынь,город
335978558,60.4412570,51.0070000,,Koygorodok,Койгородок,село
335978564,60.1501600,59.9605170,Свердловская область,Severouralsk,Североуральск,город
335978567,60.2790640,47.0647700,Кировская область,Podosinovets,Подосиновец,посёлок городского типа
335978568,60.2505300,47.7857130,Кировская область,Pinyug,Пинюг,посёлок городского типа
335978573,67.5536960,63.7759550,Коми,Komsomolskiy,Комсомольский,посёлок городского типа
335978588,67.5811920,63.7837370,,Vorgashor,Воргашор,посёлок городского типа
335978595,61.1987694,62.8577766,,Pionerskiy,Пионерский,посёлок городского типа
335978609,66.0397490,60.1315800,,Inta,Инта,город
335978623,61.0354040,76.1082150,,Megion,Мегион,город
335978637,62.4595410,66.0450670,,Oktyabr'skoe,Октябрьское,посёлок городского типа
335978670,63.4497609,120.3146678,Республика Саха (Якутия),Verkhnevilyuysk,Верхневилюйск,село
335978687,59.9533237,40.2068249,Вологодская область,Kharovsk,Харовск,город
335978691,63.9236180,127.4667590,Республика Саха (Якутия),Sangar,Сангар,посёлок городского типа
335978725,59.0777693,42.2861828,Костромская область,Soligalish,Солигалич,город
335978729,59.7817190,52.1294360,Кировская область,,,посёлок городского типа
335978731,59.9443860,54.9898260,Пермский край,Kosa,Коса,село
335978750,59.5304186,45.4585029,Вологодская область,Nikolsk,Никольск,город
335978754,59.3159141,50.8017309,Кировская область,Nagorsk,Нагорск,посёлок городского типа
335978756,59.6517910,67.4118190,,Kondinskoye,Кондинское,посёлок городского типа
335978758,59.3951018,48.9644445,Кировская область,Murashi,Мураши,город
335978760,59.5924030,65.9083330,,Mezhdurechenskiy,Междуреченский,посёлок городского типа
335978771,59.7210166,65.8847745,,Lugovoy,Луговой,посёлок городского типа
335978775,59.8481900,48.2800410,Кировская область,Oparino,Опарино,посёлок городского типа
335978802,59.3286875,54.3246555,Пермский край,Yurla,Юрла,село
335978823,59.4274410,62.3524700,Свердловская область,Gari,Гари,посёлок городского типа
335978841,59.0422074,49.2802628,Кировская область,Yurya,Юрья,посёлок городского типа
335978853,59.1738890,61.8619350,Свердловская область,Sosva,Сосьва,посёлок городского типа
336140167,52.7807120,37.6902430,Орловская область,Krasnaya Zarya,Красная Заря,посёлок
336140198,52.6586990,41.8790020,Тамбовская область,Rasskazovo,Рассказово,город
336140200,52.6721920,36.3801120,Орловская область,Zmiyevka,Змиёвка,посёлок городского типа
336140217,52.6332020,40.2603000,Тамбовская область,Petrovskoye,Петровское,село
336140240,52.5870419,41.4994249,Тамбовская область,Kotovsk,Котовск,город
336140248,52.5722320,34.5716674,Брянская область,Lokot,Локоть,посёлок городского типа
336140258,52.5094180,35.1457250,Орловская область,Dmitrovsk-Orlovskiy,Дмитровск,город
336140265,52.5398220,43.2550240,Пензенская область,Tamala,Тамала,посёлок городского типа
336140276,52.4961200,39.9551620,Липецкая область,Gryazi,Грязи,город
336140287,52.4253859,37.6089000,Орловская область,Livny,Ливны,город
336140289,52.4615060,44.2139240,,Serdobsk,Сердобск,город
336140293,52.4581207,43.7039446,Пензенская область,Bekovo,Беково,посёлок городского типа
336140301,52.4481050,35.7809790,Орловская область,Trosna,Тросна,село
336140305,52.3995780,36.5040210,Орловская область,Maloarkhangelsk,Малоархангельск,город
336140311,52.4161530,34.7884860,Брянская область,Komarichi,Комаричи,посёлок городского типа
336140317,52.3192156,36.3020868,Курская область,Ponyri,Поныри,посёлок городского типа
336140318,52.3273010,42.4980010,Тамбовская область,Inzhavino,Инжавино,рабочий посёлок
336140320,52.3243879,38.3495961,Липецкая область,Dolgorukovo,Долгоруково,село
336140336,52.2599057,43.7877429,,Rtishchevo,Ртищево,город
336140362,52.2227360,37.0286060,Орловская область,Kolpna,Колпна,посёлок городского типа
336140367,52.0847664,36.3799043,Курская область,Zolotukhino,Золотухино,посёлок городского типа
336140369,52.1284900,35.0754390,Курская область,Dmitriyev,Дмитриев-Льговский,город
336140371,52.1468280,38.2783890,Липецкая область,Terbuny,Тербуны,село
336140373,52.0506929,39.7399996,Липецкая область,Usman,Усмань,город
336140376,52.1658357,40.4772102,Липецкая область,Dobrinka,Добринка,посёлок
336140383,52.0552637,37.5295749,Орловская область,Dolgoye,Долгое,посёлок городского типа
336140385,52.1352010,42.0273020,Тамбовская область,Rzhaksa,Ржакса,рабочий посёлок
336140398,51.9898450,42.2583960,Тамбовская область,Uvarovo,Уварово,город
336140399,51.9939000,41.1618000,Тамбовская область,Tokarevka,Токарёвка,рабочий посёлок
336140412,51.9429130,43.4890980,Саратовская область,Arkadak,Аркадак,город
336140440,51.8489800,37.7242200,Курская область,Kshenskiy,Кшенский,посёлок городского типа
336140441,51.8507000,42.4823990,Тамбовская область,Muchkapskiy,Мучкапский,рабочий посёлок
336140447,51.8439330,41.4703670,Тамбовская область,Zherdevka,Жердевка,город
336140448,51.8708210,36.9131896,Курская область,Shchigry,Щигры,город
336140450,51.8367188,40.7982804,Воронежская область,Ertil,Эртиль,город
336140452,51.8876751,37.2624053,Курская область,Cheremisinovo,Черемисиново,посёлок городского типа
336140471,51.8463290,35.2929690,Курская область,Konyshevka,Конышёвка,посёлок городского типа
336140474,51.8439568,39.9334627,Воронежская область,Verkhnyaya Khava,Верхняя Хава,село
336140489,51.6906587,35.2839999,,L'gov,Льгов,город
336140500,51.6849820,41.5909420,Воронежская область,Ternovka,Терновка,село
336140509,51.7410278,42.7557244,Саратовская область,Romanovka,Романовка,посёлок городского типа
336140521,51.5459000,38.3638000,Воронежская область,Nizhnedevitsk,Нижнедевицк,село
336140540,51.5705380,34.6835060,Курская область,Rylsk,Рыльск,город
336140544,51.6568603,38.9011124,Воронежская область,Latnaya,Латная,посёлок городского типа
336140547,51.6231960,35.4774930,Курская область,Imeni Karla Libknekhta,Посёлок имени Карла Либкнехта,посёлок городского типа
336140550,51.6217460,37.1225780,Курская область,Tim,Тим,посёлок городского типа
336140564,51.6481480,40.1343460,Воронежская область,Panino,Панино,посёлок городского типа
336140569,51.5370840,43.1717621,Саратовская область,Balashov,Балашов,город
336140573,51.5624502,38.7569796,Воронежская область,Khokhol,Хохол,село
336140607,51.4999470,44.4845810,Саратовская область,Kalininsk,Калининск,город
336140608,51.5215610,38.0349160,Курская область,Gorshechnoye,Горшечное,посёлок городского типа
336140636,51.4195520,36.7499010,Курская область,Solintsevo,Солнцево,посёлок городского типа
336140669,51.4177060,36.1180460,Курская область,Medvenka,Медвенка,посёлок городского типа
336140670,51.4142340,34.8970910,Курская область,Korenevo,Коренево,посёлок городского типа
336140673,51.2980380,37.8332020,Белгородская область,Stary Oskol,Старый Оскол,город
336140693,51.3391315,34.6373099,Курская область,Glushkovo,Глушково,посёлок городского типа
336140698,51.2110790,36.2762450,Курская область,Oboyan',Обоянь,город
336140701,51.2360230,36.6941094,Курская область,Pristen,Пристень,посёлок городского типа
336140727,50.8827020,44.8224980,Волгоградская область,Linevo,Линёво,рабочий посёлок
336140733,51.0951460,41.6169550,Воронежская область,Novokhopersk,Новохопёрск,город
336140738,51.0967999,40.0307798,Воронежская область,Bobrov,Бобров,город
336140739,51.1154100,40.7281230,Воронежская область,Talovaya,Таловая,рабочий посёлок
336140749,51.0623050,36.1373520,Белгородская область,Ivnya,Ивня,посёлок городского типа
336140754,51.0828780,41.5756110,Воронежская область,Novokhoperskiy,Новохопёрский,посёлок городского типа
336140761,51.1860003,43.7067631,Саратовская область,Samoylovka,Самойловка,посёлок городского типа
336140766,51.1907080,35.2708550,Курская область,Sudzha,Суджа,город
336140771,51.1593740,39.4223590,Воронежская область,Davydovka,Давыдовка,посёлок городского типа
336140786,50.6451490,40.9245030,Воронежская область,Vorobyevka,Воробьёвка,село
336140811,50.8649020,39.0772440,Воронежская область,Ostrogozhsk,Острогожск,город
336140813,51.0345463,36.7324649,Белгородская область,Prokhorovka,Прохоровка,посёлок городского типа
336140818,50.8284910,40.5873220,Воронежская область,Buturlinovka,Бутурлиновка,город
336140824,51.1992760,42.2409400,Воронежская область,Povorino,Поворино,город
336140851,50.9773982,39.5047959,Воронежская область,Liski,Лиски,город
336140852,50.9749300,42.3662720,Волгоградская область,Novonikolayevskiy,Новониколаевский,рабочий посёлок
336140855,50.9787790,44.7789080,Волгоградская область,Zhirnovsk,Жирновск,город
336140859,50.9464340,43.7430380,Волгоградская область,Yelan,Елань,рабочий посёлок
336140881,50.3222080,44.8016430,Волгоградская область,Kotovo,Котово,город
336140884,50.6518308,38.4011297,Белгородская область,Biryuch,Бирюч,город
336140924,50.4082910,41.7522540,Волгоградская область,Nekhaevskaya,Нехаевская,станица
336140926,50.8107410,37.1953160,Белгородская область,Korocha,Короча,город
336140930,50.7967910,44.5566060,Волгоградская область,Rudnya,Рудня,рабочий посёлок
336140935,50.7130010,39.4325980,Воронежская область,Kamenka,Каменка,посёлок городского типа
336140936,50.6996960,44.7256280,Волгоградская область,Krasnyy Yar,Красный Яр,рабочий посёлок
336140943,50.7415160,43.0564460,Волгоградская область,Preobragenskaya,Преображенская,станица
336140950,50.7644270,37.8633380,Белгородская область,Novyy Oskol,Новый Оскол,город
336140962,50.4259519,41.0161721,Воронежская область,Kalach,Калач,город
336140966,50.4036140,39.6388320,Воронежская область,Podgorenskiy,Подгоренский,посёлок городского типа
336140969,50.4334980,36.3647990,Белгородская область,Oktyabr'skiy,Октябрьский,посёлок городского типа
336141025,50.5296750,42.6673620,Волгоградская область,Novoanninskiy,Новоаннинский,город
336141049,50.1677646,40.3966104,Воронежская область,Verkhniy Mamon,Верхний Мамон,село
336141078,50.4837000,37.8653980,Белгородская область,Volokonovka,Волоконовка,посёлок городского типа
336141081,50.4837728,35.6712018,Белгородская область,Grayvoron,Грайворон,город
336141124,50.1518962,38.4453089,Белгородская область,Veydelevka,Вейделевка,посёлок городского типа
336141155,50.4520214,40.1399663,Воронежская область,Pavlovsk,Павловск,город
336141201,50.2807430,39.2971530,Воронежская область,Olkhovatka,Ольховатка,посёлок городского типа
336141212,51.8824420,45.0125730,Саратовская область,Atkarsk,Аткарск,город
336141218,50.1396220,45.2141000,Волгоградская область,Petrov Val,Петров Вал,город
336306051,55.8330730,32.9394870,Тверская область,Belyy,Белый,город
336306070,55.7246871,38.3392843,,,имени Воровского,посёлок городского типа
336306078,55.6300330,34.3010323,Смоленская область,Novodugino,Новодугино,село
336306145,55.1907803,32.4060434,Смоленская область,Dukhovshchina,Духовщина,город
336306159,55.1084278,33.2376513,Смоленская область,Safonovo,Сафоново,город
336306167,55.0662279,32.6883609,Смоленская область,Yartsevo,Ярцево,город
336306171,55.2559038,37.4853088,Московская область,Stolbovaya,Столбовая,посёлок городского типа
336306191,54.9148236,33.2989051,Смоленская область,Dorogobuzh,Дорогобуж,город
336306193,54.7813043,34.3185555,Смоленская область,Ugra,Угра,село
336306203,54.8898976,32.4359730,Смоленская область,Kardymovo,Кардымово,посёлок городского типа
336306218,54.8091052,36.3096910,Калужская область,Detchino,Детчино,село
336306252,54.5764954,33.1891698,Смоленская область,Yelnya,Ельня,город
336306262,54.4125860,34.0309659,Калужская область,Spas-Demensk,Спас-Деменск,город
336306274,54.3910744,35.7400192,Калужская область,Babynino,Бабынино,посёлок
336306280,54.1524925,36.9591856,Тульская область,Dubna,Дубна,рабочий посёлок
336306283,54.1012793,35.3394394,Калужская область,Sukhinichi,Сухиничи,город
336306293,54.5028103,37.0667213,Тульская область,Aleksin,Алексин,город
336306319,54.3207145,35.2796334,Калужская область,Meshchovsk,Мещовск,город
336306323,54.1223600,36.5000270,Тульская область,Suvorov,Суворов,город
336306335,53.9699000,38.5327000,Тульская область,Kimovsk,Кимовск,город
336306337,54.0044650,37.5179079,Тульская область,Schokino,Щёкино,город
336306359,54.2607000,36.1647000,,Peremyshl,Перемышль,село
336306372,54.0850940,37.8291090,Тульская область,Bolokhovo,Болохово,город
336306378,54.0110130,38.2909430,Тульская область,Novomoskovsk,Новомосковск,город
336306384,54.0743220,34.3026080,Калужская область,Kirov,Киров,город
336306403,53.8646239,34.4479080,Калужская область,Lyudinovo,Людиново,город
336306405,53.8555499,32.4259307,Смоленская область,Shumyachi,Шумячи,посёлок городского типа
336306424,53.6233396,37.5905627,Тульская область,Tyoploye,Тёплое,рабочий посёлок
336306431,53.6003804,34.3335523,Брянская область,Dyatkovo,Дятьково,город
336306453,53.9346588,37.6320858,Тульская область,Sovetsk,Советск,город
336306458,53.9267120,37.9299160,Тульская область,Kireyevsk,Киреевск,город
336306461,53.9333880,35.1055180,Калужская область,Duminichi,Думиничи,посёлок городского типа
336306468,53.9367980,36.6879010,Тульская область,Odoyev,Одоев,рабочий посёлок
336306470,53.9402404,37.7018766,Тульская область,Lipki,Липки,город
336306478,53.4526625,34.4154587,Брянская область,Fokino,Фокино,город
336306480,53.4509280,36.9101030,Тульская область,Chern,Чернь,рабочий посёлок
336306490,53.7068732,37.2920333,Тульская область,Plavsk,Плавск,город
336306499,53.6897770,33.5049900,Брянская область,Dubrovka,Дубровка,посёлок городского типа
336306505,53.7485430,34.7354470,Калужская область,Zhizdra,Жиздра,город
336306541,53.5535928,38.0063224,Тульская область,Volovo,Волово,рабочий посёлок
336306573,52.9729390,37.0419080,Орловская область,Novosil,Новосиль,город
336306575,52.9676020,35.7220990,Орловская область,Naryshkino,Нарышкино,посёлок городского типа
336306590,53.2789840,36.5760770,Орловская область,Mtsensk,Мценск,город
336306593,53.3856010,33.2155990,Брянская область,Kletnya,Клетня,посёлок городского типа
336306594,53.3699760,34.1006160,Брянская область,,Сельцо,город
336306596,52.8104670,37.2399250,Орловская область,Verkhovye,Верховье,посёлок городского типа
336306598,52.8541150,37.4466290,Орловская область,Khomutovo,Хомутово,посёлок городского типа
336306635,53.4247526,38.6571206,Тульская область,Kurkino,Куркино,рабочий посёлок
336520767,55.9651370,43.0711140,Нижегородская область,Pavlovo,Павлово,город
336520786,55.9881020,43.2754860,Нижегородская область,Vorsma,Ворсма,город
336520802,55.8077700,44.0940250,Нижегородская область,Dal'neye Konstantinovo,Дальнее Константиново,рабочий посёлок
336520819,55.8010290,42.7720990,,Vacha,Вача,рабочий посёлок
336520825,55.7837504,44.7763185,Нижегородская область,Bolshoye Murashkino,Большое Мурашкино,рабочий посёлок
336520880,55.5965460,44.5448460,,Perevoz,Перевоз,город
336521119,55.4677567,43.2005045,Нижегородская область,Mukhtolovo,Мухтолово,рабочий посёлок
336521252,55.2410408,43.0968037,Нижегородская область,Ardatov,Ардатов,рабочий посёлок
336521564,54.8906328,42.7598373,,Voznesenskoye,Вознесенское,рабочий посёлок
336521599,54.9346310,43.3346060,,Sarov,Саров,город
336521645,54.7677911,42.2760267,Рязанская область,Ermish,Ермишь,посёлок городского типа
336521663,54.8666491,43.8054106,Нижегородская область,Pervomaysk,Первомайск,город
336521799,54.6206890,43.8759770,Мордовия,Yelniki,Ельники,село
336521806,54.6314960,43.2109830,Мордовия,Temnikov,Темников,город
336521940,54.5756840,41.8149190,Рязанская область,Pitelino,Пителино,посёлок городского типа
336521963,54.4161794,42.8385091,Мордовия,Yavas,Явас,рабочий посёлок
336522062,54.4306717,43.7778997,Мордовия,Krasnoslobodsk,Краснослободск,город
336522107,54.3042560,44.4635580,Мордовия,Staroye Shaygovo,Старое Шайгово,село
336522134,54.0745320,43.2451440,Мордовия,Torbeyevo,Торбеево,посёлок городского типа
336522195,53.9310306,43.1885058,Пензенская область,Spassk,Спасск,город
336522229,53.8794170,43.6994710,Пензенская область,Narovchat,Наровчат,село
336522249,53.8655890,44.8396450,Пензенская область,Issa,Исса,посёлок городского типа
336523406,53.5299910,43.6736260,Пензенская область,Nizhniy Lomov,Нижний Ломов,город
336523490,53.3266260,43.3196720,Пензенская область,Pachelma,Пачелма,рабочий посёлок
336523553,53.4429020,41.8130990,Тамбовская область,Morshansk,Моршанск,город
336523625,53.2122204,43.0360244,Пензенская область,Bashmakovo,Башмаково,посёлок городского типа
336523650,53.1850012,44.0529066,Пензенская область,Kamenka,Каменка,город
336523727,52.9669338,43.4130625,Пензенская область,Belinskiy,Белинский,город
336523790,55.8636579,48.3618598,Марий Эл,Volzhsk,Волжск,город
336523799,55.8579699,45.6954529,Нижегородская область,Spasskoye,Спасское,село
336523845,55.9718239,48.0161050,Марий Эл,Zvenigovo,Звенигово,город
336524051,55.8477605,48.5097031,Татарстан,Yäşel Üzän,Зеленодольск,город
336524089,55.6988225,46.1593707,,Krasnyye Chetai,Красные Четаи,село
336524182,55.4043358,49.5468376,Татарстан,Layış,Лаишево,город
336524229,55.3049649,50.1129039,,Äläski,Алексеевское,посёлок городского типа
336524307,55.5522547,45.9207853,Нижегородская область,Pil'na,Пильна,рабочий посёлок
336524356,55.5328220,45.4616976,Нижегородская область,Sergach,Сергач,город
336524379,55.4917095,46.9529003,Чувашия,Vurnary,Вурнары,посёлок городского типа
336524471,55.2015629,49.2680082,Татарстан,Kama Tamağı,Камское Устье,посёлок городского типа
336524477,55.1989448,46.3261836,Чувашия,Poretskoye,Порецкое,село
336524666,54.9034845,49.9275488,Татарстан,Bazarlı Mataq,Базарные Матаки,село
336524694,54.9342754,48.8319574,Татарстан,Täteş,Тетюши,город
336524720,55.0681559,47.6042007,Чувашия,Batyrevo,Батырево,село
336524899,54.8463510,50.8055345,Татарстан,Aqsubay,Аксубаево,посёлок городского типа
336524920,54.8436669,46.2386314,Мордовия,Ardatov,Ардатов,город
336525099,54.7249827,47.5645397,Татарстан,İske Çüpräle,Старое Дрожжаное,село
336525307,54.2944981,47.3782908,,Yazykovo,Языково,рабочий посёлок
336525345,54.3600605,48.8489979,Ульяновская область,,Чердаклы,рабочий посёлок
336525378,54.4079480,45.7840230,Мордовия,Chamzinka,Чамзинка,посёлок городского типа
336525399,54.4209210,45.3341220,Мордовия,Romodanovo,Ромоданово,посёлок
336525405,54.4269176,48.2749899,Ульяновская область,Isheyevka,Ишеевка,рабочий посёлок
336525410,54.4297351,50.8019579,Татарстан,Norlat,Нурлат,город
336525416,54.4366460,45.8215600,Мордовия,Komsomol'sky,Комсомольский,посёлок городского типа
336525429,54.4800412,46.7234429,Ульяновская область,Surskoye,Сурское,рабочий посёлок
336525476,54.1464093,48.3916541,Ульяновская область,Novoul'yanovsk,Новоульяновск,город
336525501,54.1483754,49.7633615,Ульяновская область,Novaya Mayna,Новая Майна,рабочий посёлок
336525506,54.1719130,45.9662820,Мордовия,Bolshiye Berezniki,Большие Березники,село
336525515,54.2173224,49.3933664,Ульяновская область,Mullovka,Мулловка,рабочий посёлок
336525530,54.1970553,46.9793449,Ульяновская область,Karsun,Карсун,рабочий посёлок
336525537,54.2050657,49.9308434,Ульяновская область,Novaya Malykla,Новая Малыкла,село
336525541,54.2043367,50.4704827,Самарская область,Koshki,Кошки,село
336525565,54.2828455,45.1226407,Мордовия,Lyambir',Лямбирь,село
336525587,53.8670040,50.2889180,Самарская область,Yelkhovka,Елховка,село
336525705,53.7161121,48.3671230,Ульяновская область,Terenga,Тереньга,рабочий посёлок
336525781,54.1140512,47.6264897,Ульяновская область,Mayna,Майна,рабочий посёлок
336525886,53.9588733,48.7872182,Ульяновская область,Sengiley,Сенгилей,город
336525933,53.4935913,50.3934880,Самарская область,Krasnyy Yar,Красный Яр,село
336526085,53.3096430,45.0413820,Пензенская область,Bessonovka,Бессоновка,село
336526102,53.7145960,46.0851750,Пензенская область,Nikolsk,Никольск,город
336526121,53.6540758,47.1013737,Ульяновская область,Barysh,Барыш,город
336526204,53.5882950,45.2228810,Пензенская область,Lunino,Лунино,посёлок городского типа
336526221,53.5405729,47.6850699,Ульяновская область,Kuzovatovo,Кузоватово,рабочий посёлок
336526294,52.9853220,49.4322968,Самарская область,Bezenchuk,Безенчук,посёлок городского типа
336526368,52.8520485,47.8706585,Ульяновская область,Radishchevo,Радищево,рабочий посёлок
336526375,52.8594410,48.6015765,Самарская область,Privolzhye,Приволжье,село
336526404,52.8628230,46.0910950,Пензенская область,Russkiy Kameshkir,Русский Камешкир,село
336526429,53.2481690,50.4899560,Самарская область,Alekseyevka,Алексеевка,посёлок городского типа
336526440,53.2942010,46.2455830,Пензенская область,Sosnovoborsk,Сосновоборск,посёлок городского типа
336526467,53.2737240,45.7022820,Пензенская область,Gorodishche,Городище,город
336526506,53.1492062,47.7526084,Ульяновская область,Novospasskoye,Новоспасское,рабочий посёлок
336526531,53.1641910,48.6712489,Самарская область,Oktyabrsk,Октябрьск,город
336526550,53.3699380,50.3536450,Самарская область,Novosemeykino,Новосемейкино,посёлок городского типа
337692066,46.1132610,33.6904091,,Armyansk,Армянск,город
337692649,45.9565346,33.7979467,,Krasnoperekopsk,Красноперекопск,город
337693487,45.7683327,33.4895660,,Rozdol'noe,Раздольное,посёлок городского типа
337693838,45.7124068,33.8640730,,Pervomaiskoe,Первомайское,посёлок городского типа
337694589,45.5869710,34.5655905,,Azovskoye,Азовское,посёлок городского типа
337694734,45.5647600,34.3017200,,Vol'noye,Вольное,посёлок городского типа
337695072,45.5085970,32.7077750,,Chornomorskoe,Черноморское,посёлок городского типа
337695202,45.4959593,34.2950929,,Krasnogvardeyskoe,Красногвардейское,посёлок городского типа
337695561,45.4430256,34.7384352,,Nizhnegorskiy,Нижнегорский,посёлок городского типа
337695588,45.4400925,33.5965762,,Novosyolovskoye,Новосёловское,посёлок городского типа
337696123,45.3458907,34.9235341,,Sovietskyi,Советский,посёлок городского типа
337696595,45.2931604,34.1285630,,Oktiabrskoe,Октябрьское,посёлок городского типа
337696984,45.2306487,35.2010750,,Kirovskoe,Кировское,посёлок городского типа
337697542,45.1319466,33.6001281,,Saky,Саки,город
337697628,45.1191428,35.4815631,,Primorski,Приморский,посёлок городского типа
337697817,45.0943138,33.5752494,,Novofedorovka,Новофёдоровка,посёлок городского типа
337697952,45.0584385,34.5949590,,Belogorsk,Белогорск,город
337697977,45.0548485,34.3225748,,Zuya,Зуя,посёлок городского типа
337698201,45.0293926,35.0881549,,Stary Krym,Старый Крым,город
337698230,45.0195507,34.0010510,,Aeroflotskyi,Аэрофлотский,посёлок городского типа
337698272,45.0160039,34.0487769,,Agrarnoye,Аграрное,посёлок городского типа
337698279,45.0198964,34.0214674,,Komsomolskoye,Комсомольское,посёлок городского типа
337698300,45.0101779,34.0264874,,Gresovsky,Грэсовский,посёлок городского типа
337698341,45.0092700,34.0565900,,Molodizhne,Молодёжное,посёлок городского типа
337698616,44.9688031,33.6071029,,Nikolayevka,Николаевка,посёлок городского типа
337698627,44.9640797,35.3580294,,Ordzhonikidze,Орджоникидзе,посёлок городского типа
337698703,44.9382816,35.1568474,,Shchebetovka,Щебетовка,посёлок городского типа
337698784,44.9143409,35.1882694,,Kurortnoe,Курортное,посёлок городского типа
337699174,44.8347618,33.9622556,,Pochtovoye,Почтовое,посёлок городского типа
337699185,44.8291568,34.9127351,,Novyi Svet,Новый Свет,посёлок городского типа
337699299,44.7755079,33.5437538,,Kacha,Кача,посёлок городского типа
337699434,44.7265841,34.0099096,,Nauchnyy,Научный,посёлок городского типа
337699692,44.6313455,33.8645453,,Kuybyshevo,Куйбышево,посёлок городского типа
337699713,44.6181043,33.6043271,,Inkerman,Инкерман,город
337699879,44.5818300,34.3429200,,Partenit,Партенит,посёлок городского типа
337699968,44.5633144,34.2887068,,Krasnokamenka,Краснокаменка,посёлок городского типа
337700009,44.5479215,34.2736976,,Gurzuf,Гурзуф,посёлок городского типа
337700061,44.5310633,34.1885438,,Sovetskoye,Советское,посёлок городского типа
337700092,44.5158616,34.2379522,,Nikita,Никита,посёлок городского типа
337700100,44.5056000,34.2150000,,Otradnoe,Отрадное,посёлок городского типа
337700114,44.5130000,34.2190000,,Voskhod,Восход,посёлок городского типа
337700122,44.5087776,34.1886781,,Massandra,Массандра,посёлок городского типа
337700166,44.4797070,34.1308433,,Vinogradnoe,Виноградное,посёлок городского типа
337700209,44.4664800,34.1410400,,Livadiya,Ливадия,посёлок городского типа
337700219,44.4603000,34.1369200,,Oreanda,Ореанда,посёлок городского типа
337700248,44.4427352,34.1328190,,Kurpaty,Курпаты,посёлок городского типа
337700260,44.4341131,34.0919813,,Koreiz,Кореиз,посёлок городского типа
337700267,44.4356415,34.1027932,,Gaspra,Гаспра,посёлок городского типа
337700287,44.4070010,33.9871072,,Goluboy Zaliv,Голубой Залив,посёлок городского типа
337700311,44.4059623,34.0050679,,Simeiz,Симеиз,посёлок городского типа
337700320,44.4048490,33.8962227,,Beregovoe,Береговое,посёлок городского типа
337700328,44.4056727,33.9117275,,Parkovoe,Парковое,посёлок городского типа
337700339,44.4023267,33.8224464,,Sanatornoye,Санаторное,посёлок городского типа
337700347,44.3972312,33.9724039,,Katsiveli,Кацивели,посёлок городского типа
337700352,44.3959988,33.9523786,,Ponizovka,Понизовка,посёлок городского типа
337700359,44.3915373,33.7872282,,Foros,Форос,посёлок городского типа
337838988,55.9875830,55.0473400,Башкортостан,Krasnokholmskiy,Краснохолмский,село
337838996,55.9700510,54.7900496,Башкортостан,Kaltasy,Калтасы,село
337839003,55.8369030,55.4104230,Башкортостан,Burayevo,Бураево,село
337839017,55.7255585,53.1071815,Татарстан,Minzälä,Мензелинск,город
337839024,55.7090757,51.4089032,Татарстан,Mamadış,Мамадыш,город
337839059,55.4490597,54.2992303,Башкортостан,,Верхнеяркеево,село
337839081,55.2866509,52.0056047,Татарстан,Zäy,Заинск,город
337839100,55.3041209,53.1975331,Татарстан,Möslim,Муслюмово,село
337839105,55.2522501,52.5887176,Татарстан,Sarman,Сарманово,село
337839114,55.1378996,54.6534999,Башкортостан,Chekmagush,Чекмагуш,село
337839119,55.1811919,53.7990407,Башкортостан,Bakaly,Бакалы,село
337839146,55.0616447,51.2248840,,Yaña Çişmä,Новошешминск,село
337839164,54.8629555,53.0792275,Татарстан,Aznaqay,Азнакаево,город
337839206,54.6611013,51.5053223,Татарстан,Çirmeşän,Черемшан,село
337839216,54.5993324,53.4663259,Татарстан,Urıssu,Уруссу,посёлок городского типа
337839253,54.5696389,54.5323993,Башкортостан,Buzdyak,Буздяк,село
337839258,54.5519880,54.1048534,Башкортостан,Kandry,Кандры,село
337839279,54.4031069,53.2356367,Татарстан,Bawlı,Бавлы,город
337839285,54.4374232,51.4637213,Самарская область,Shentala,Шентала,железнодорожная станция
337839295,54.2584020,52.0279830,Самарская область,Klyavlino,Клявлино,железнодорожная станция
337839319,54.0917890,52.5416260,Оренбургская область,Severnoye,Северное,село
337839323,54.1327138,51.5340222,Самарская область,Isakly,Исаклы,село
337839326,54.1123310,52.1440770,Самарская область,Kamyshla,Камышла,село
337839333,54.2185710,55.0266610,Башкортостан,Davlekanovo,Давлеканово,город
337839371,53.9412800,51.1650120,Самарская область,Sergiyevsk,Сергиевск,село
337839379,54.0686950,54.9416280,Башкортостан,Rayevskiy,Раевский,село
337839434,53.8939320,53.9313280,Башкортостан,Priyutovo,Приютово,рабочий посёлок
